{
  "RECORDS": [
    {
      "id": "100000",
      "name": "中国",
      "parent_id": "0",
      "short_name": "中国",
      "level": "0",
      "city_code": "",
      "post_code": "",
      "merger_name": "中国",
      "lng": "116.36832428",
      "lat": "39.91508484",
      "pingyin": "China",
      "create_time": "03/15/2018 14:28:06"
    },
    {
      "id": "110000",
      "name": "北京",
      "parent_id": "100000",
      "short_name": "北京",
      "level": "1",
      "city_code": "",
      "post_code": "",
      "merger_name": "中国,北京",
      "lng": "116.4052887",
      "lat": "39.90498734",
      "pingyin": "Beijing",
      "create_time": "03/15/2018 14:28:06"
    },
    {
      "id": "110100",
      "name": "北京市",
      "parent_id": "110000",
      "short_name": "北京",
      "level": "2",
      "city_code": "010",
      "post_code": "100000",
      "merger_name": "中国,北京,北京市",
      "lng": "116.4052887",
      "lat": "39.90498734",
      "pingyin": "Beijing",
      "create_time": "03/15/2018 14:28:06"
    },
    {
      "id": "110101",
      "name": "东城区",
      "parent_id": "110100",
      "short_name": "东城",
      "level": "3",
      "city_code": "010",
      "post_code": "100010",
      "merger_name": "中国,北京,北京市,东城区",
      "lng": "116.41004944",
      "lat": "39.93156815",
      "pingyin": "Dongcheng",
      "create_time": "03/15/2018 14:28:06"
    },
    {
      "id": "110102",
      "name": "西城区",
      "parent_id": "110100",
      "short_name": "西城",
      "level": "3",
      "city_code": "010",
      "post_code": "100032",
      "merger_name": "中国,北京,北京市,西城区",
      "lng": "116.36003113",
      "lat": "39.93050003",
      "pingyin": "Xicheng",
      "create_time": "03/15/2018 14:28:06"
    },
    {
      "id": "110105",
      "name": "朝阳区",
      "parent_id": "110100",
      "short_name": "朝阳",
      "level": "3",
      "city_code": "010",
      "post_code": "100020",
      "merger_name": "中国,北京,北京市,朝阳区",
      "lng": "116.48548126",
      "lat": "39.94839859",
      "pingyin": "Chaoyang",
      "create_time": "03/15/2018 14:28:06"
    },
    {
      "id": "110106",
      "name": "丰台区",
      "parent_id": "110100",
      "short_name": "丰台",
      "level": "3",
      "city_code": "010",
      "post_code": "100071",
      "merger_name": "中国,北京,北京市,丰台区",
      "lng": "116.28624725",
      "lat": "39.85850143",
      "pingyin": "Fengtai",
      "create_time": "03/15/2018 14:28:06"
    },
    {
      "id": "110107",
      "name": "石景山区",
      "parent_id": "110100",
      "short_name": "石景山",
      "level": "3",
      "city_code": "010",
      "post_code": "100043",
      "merger_name": "中国,北京,北京市,石景山区",
      "lng": "116.22290039",
      "lat": "39.90563965",
      "pingyin": "Shijingshan",
      "create_time": "03/15/2018 14:28:06"
    },
    {
      "id": "110108",
      "name": "海淀区",
      "parent_id": "110100",
      "short_name": "海淀",
      "level": "3",
      "city_code": "010",
      "post_code": "100089",
      "merger_name": "中国,北京,北京市,海淀区",
      "lng": "116.29811859",
      "lat": "39.95930862",
      "pingyin": "Haidian",
      "create_time": "03/15/2018 14:28:06"
    },
    {
      "id": "110109",
      "name": "门头沟区",
      "parent_id": "110100",
      "short_name": "门头沟",
      "level": "3",
      "city_code": "010",
      "post_code": "102300",
      "merger_name": "中国,北京,北京市,门头沟区",
      "lng": "116.10137177",
      "lat": "39.94042969",
      "pingyin": "Mentougou",
      "create_time": "03/15/2018 14:28:06"
    },
    {
      "id": "110111",
      "name": "房山区",
      "parent_id": "110100",
      "short_name": "房山",
      "level": "3",
      "city_code": "010",
      "post_code": "102488",
      "merger_name": "中国,北京,北京市,房山区",
      "lng": "116.1425705",
      "lat": "39.74785995",
      "pingyin": "Fangshan",
      "create_time": "03/15/2018 14:28:06"
    },
    {
      "id": "110112",
      "name": "通州区",
      "parent_id": "110100",
      "short_name": "通州",
      "level": "3",
      "city_code": "010",
      "post_code": "101149",
      "merger_name": "中国,北京,北京市,通州区",
      "lng": "116.6571579",
      "lat": "39.90966034",
      "pingyin": "Tongzhou",
      "create_time": "03/15/2018 14:28:06"
    },
    {
      "id": "110113",
      "name": "顺义区",
      "parent_id": "110100",
      "short_name": "顺义",
      "level": "3",
      "city_code": "010",
      "post_code": "101300",
      "merger_name": "中国,北京,北京市,顺义区",
      "lng": "116.65416718",
      "lat": "40.13019943",
      "pingyin": "Shunyi",
      "create_time": "03/15/2018 14:28:06"
    },
    {
      "id": "110114",
      "name": "昌平区",
      "parent_id": "110100",
      "short_name": "昌平",
      "level": "3",
      "city_code": "010",
      "post_code": "102200",
      "merger_name": "中国,北京,北京市,昌平区",
      "lng": "116.23120117",
      "lat": "40.22071838",
      "pingyin": "Changping",
      "create_time": "03/15/2018 14:28:06"
    },
    {
      "id": "110115",
      "name": "大兴区",
      "parent_id": "110100",
      "short_name": "大兴",
      "level": "3",
      "city_code": "010",
      "post_code": "102600",
      "merger_name": "中国,北京,北京市,大兴区",
      "lng": "116.3414917",
      "lat": "39.72668076",
      "pingyin": "Daxing",
      "create_time": "03/15/2018 14:28:06"
    },
    {
      "id": "110116",
      "name": "怀柔区",
      "parent_id": "110100",
      "short_name": "怀柔",
      "level": "3",
      "city_code": "010",
      "post_code": "101400",
      "merger_name": "中国,北京,北京市,怀柔区",
      "lng": "116.63168335",
      "lat": "40.31602097",
      "pingyin": "Huairou",
      "create_time": "03/15/2018 14:28:06"
    },
    {
      "id": "110117",
      "name": "平谷区",
      "parent_id": "110100",
      "short_name": "平谷",
      "level": "3",
      "city_code": "010",
      "post_code": "101200",
      "merger_name": "中国,北京,北京市,平谷区",
      "lng": "117.12133026",
      "lat": "40.14056015",
      "pingyin": "Pinggu",
      "create_time": "03/15/2018 14:28:06"
    },
    {
      "id": "110228",
      "name": "密云县",
      "parent_id": "110100",
      "short_name": "密云",
      "level": "3",
      "city_code": "010",
      "post_code": "101500",
      "merger_name": "中国,北京,北京市,密云县",
      "lng": "116.84294891",
      "lat": "40.37617874",
      "pingyin": "Miyun",
      "create_time": "03/15/2018 14:28:06"
    },
    {
      "id": "110229",
      "name": "延庆县",
      "parent_id": "110100",
      "short_name": "延庆",
      "level": "3",
      "city_code": "010",
      "post_code": "102100",
      "merger_name": "中国,北京,北京市,延庆县",
      "lng": "115.97493744",
      "lat": "40.45671844",
      "pingyin": "Yanqing",
      "create_time": "03/15/2018 14:28:06"
    },
    {
      "id": "120000",
      "name": "天津",
      "parent_id": "100000",
      "short_name": "天津",
      "level": "1",
      "city_code": "",
      "post_code": "",
      "merger_name": "中国,天津",
      "lng": "117.19018555",
      "lat": "39.12559509",
      "pingyin": "Tianjin",
      "create_time": "03/15/2018 14:28:06"
    },
    {
      "id": "120100",
      "name": "天津市",
      "parent_id": "120000",
      "short_name": "天津",
      "level": "2",
      "city_code": "022",
      "post_code": "300000",
      "merger_name": "中国,天津,天津市",
      "lng": "117.19018555",
      "lat": "39.12559509",
      "pingyin": "Tianjin",
      "create_time": "03/15/2018 14:28:06"
    },
    {
      "id": "120101",
      "name": "和平区",
      "parent_id": "120100",
      "short_name": "和平",
      "level": "3",
      "city_code": "022",
      "post_code": "300041",
      "merger_name": "中国,天津,天津市,和平区",
      "lng": "117.21456146",
      "lat": "39.11717987",
      "pingyin": "Heping",
      "create_time": "03/15/2018 14:28:06"
    },
    {
      "id": "120102",
      "name": "河东区",
      "parent_id": "120100",
      "short_name": "河东",
      "level": "3",
      "city_code": "022",
      "post_code": "300171",
      "merger_name": "中国,天津,天津市,河东区",
      "lng": "117.22561646",
      "lat": "39.12318039",
      "pingyin": "Hedong",
      "create_time": "03/15/2018 14:28:06"
    },
    {
      "id": "120103",
      "name": "河西区",
      "parent_id": "120100",
      "short_name": "河西",
      "level": "3",
      "city_code": "022",
      "post_code": "300202",
      "merger_name": "中国,天津,天津市,河西区",
      "lng": "117.2232666",
      "lat": "39.10958862",
      "pingyin": "Hexi",
      "create_time": "03/15/2018 14:28:06"
    },
    {
      "id": "120104",
      "name": "南开区",
      "parent_id": "120100",
      "short_name": "南开",
      "level": "3",
      "city_code": "022",
      "post_code": "300110",
      "merger_name": "中国,天津,天津市,南开区",
      "lng": "117.15074158",
      "lat": "39.1382103",
      "pingyin": "Nankai",
      "create_time": "03/15/2018 14:28:06"
    },
    {
      "id": "120105",
      "name": "河北区",
      "parent_id": "120100",
      "short_name": "河北",
      "level": "3",
      "city_code": "022",
      "post_code": "300143",
      "merger_name": "中国,天津,天津市,河北区",
      "lng": "117.19696808",
      "lat": "39.14815903",
      "pingyin": "Hebei",
      "create_time": "03/15/2018 14:28:06"
    },
    {
      "id": "120106",
      "name": "红桥区",
      "parent_id": "120100",
      "short_name": "红桥",
      "level": "3",
      "city_code": "022",
      "post_code": "300131",
      "merger_name": "中国,天津,天津市,红桥区",
      "lng": "117.15145111",
      "lat": "39.16714859",
      "pingyin": "Hongqiao",
      "create_time": "03/15/2018 14:28:06"
    },
    {
      "id": "120110",
      "name": "东丽区",
      "parent_id": "120100",
      "short_name": "东丽",
      "level": "3",
      "city_code": "022",
      "post_code": "300300",
      "merger_name": "中国,天津,天津市,东丽区",
      "lng": "117.31436157",
      "lat": "39.0862999",
      "pingyin": "Dongli",
      "create_time": "03/15/2018 14:28:06"
    },
    {
      "id": "120111",
      "name": "西青区",
      "parent_id": "120100",
      "short_name": "西青",
      "level": "3",
      "city_code": "022",
      "post_code": "300380",
      "merger_name": "中国,天津,天津市,西青区",
      "lng": "117.00926971",
      "lat": "39.14123154",
      "pingyin": "Xiqing",
      "create_time": "03/15/2018 14:28:06"
    },
    {
      "id": "120112",
      "name": "津南区",
      "parent_id": "120100",
      "short_name": "津南",
      "level": "3",
      "city_code": "022",
      "post_code": "300350",
      "merger_name": "中国,天津,天津市,津南区",
      "lng": "117.38536835",
      "lat": "38.99139023",
      "pingyin": "Jinnan",
      "create_time": "03/15/2018 14:28:06"
    },
    {
      "id": "120113",
      "name": "北辰区",
      "parent_id": "120100",
      "short_name": "北辰",
      "level": "3",
      "city_code": "022",
      "post_code": "300400",
      "merger_name": "中国,天津,天津市,北辰区",
      "lng": "117.13217163",
      "lat": "39.22130966",
      "pingyin": "Beichen",
      "create_time": "03/15/2018 14:28:06"
    },
    {
      "id": "120114",
      "name": "武清区",
      "parent_id": "120100",
      "short_name": "武清",
      "level": "3",
      "city_code": "022",
      "post_code": "301700",
      "merger_name": "中国,天津,天津市,武清区",
      "lng": "117.04443359",
      "lat": "39.38415146",
      "pingyin": "Wuqing",
      "create_time": "03/15/2018 14:28:06"
    },
    {
      "id": "120115",
      "name": "宝坻区",
      "parent_id": "120100",
      "short_name": "宝坻",
      "level": "3",
      "city_code": "022",
      "post_code": "301800",
      "merger_name": "中国,天津,天津市,宝坻区",
      "lng": "117.31030273",
      "lat": "39.71760941",
      "pingyin": "Baodi",
      "create_time": "03/15/2018 14:28:06"
    },
    {
      "id": "120116",
      "name": "滨海新区",
      "parent_id": "120100",
      "short_name": "滨海新区",
      "level": "3",
      "city_code": "022",
      "post_code": "300451",
      "merger_name": "中国,天津,天津市,滨海新区",
      "lng": "117.70162201",
      "lat": "39.02667999",
      "pingyin": "Binhaixinqu",
      "create_time": "03/15/2018 14:28:06"
    },
    {
      "id": "120221",
      "name": "宁河县",
      "parent_id": "120100",
      "short_name": "宁河",
      "level": "3",
      "city_code": "022",
      "post_code": "301500",
      "merger_name": "中国,天津,天津市,宁河县",
      "lng": "117.82550049",
      "lat": "39.33047867",
      "pingyin": "Ninghe",
      "create_time": "03/15/2018 14:28:06"
    },
    {
      "id": "120223",
      "name": "静海县",
      "parent_id": "120100",
      "short_name": "静海",
      "level": "3",
      "city_code": "022",
      "post_code": "301600",
      "merger_name": "中国,天津,天津市,静海县",
      "lng": "116.9743576",
      "lat": "38.94581985",
      "pingyin": "Jinghai",
      "create_time": "03/15/2018 14:28:06"
    },
    {
      "id": "120225",
      "name": "蓟县",
      "parent_id": "120100",
      "short_name": "蓟县",
      "level": "3",
      "city_code": "022",
      "post_code": "301900",
      "merger_name": "中国,天津,天津市,蓟县",
      "lng": "117.4079895",
      "lat": "40.04566956",
      "pingyin": "Jixian",
      "create_time": "03/15/2018 14:28:06"
    },
    {
      "id": "130000",
      "name": "河北省",
      "parent_id": "100000",
      "short_name": "河北",
      "level": "1",
      "city_code": "",
      "post_code": "",
      "merger_name": "中国,河北省",
      "lng": "114.50246429",
      "lat": "38.04547501",
      "pingyin": "Hebei",
      "create_time": "03/15/2018 14:28:06"
    },
    {
      "id": "130100",
      "name": "石家庄市",
      "parent_id": "130000",
      "short_name": "石家庄",
      "level": "2",
      "city_code": "0311",
      "post_code": "050011",
      "merger_name": "中国,河北省,石家庄市",
      "lng": "114.50246429",
      "lat": "38.04547501",
      "pingyin": "Shijiazhuang",
      "create_time": "03/15/2018 14:28:06"
    },
    {
      "id": "130102",
      "name": "长安区",
      "parent_id": "130100",
      "short_name": "长安",
      "level": "3",
      "city_code": "0311",
      "post_code": "050011",
      "merger_name": "中国,河北省,石家庄市,长安区",
      "lng": "114.5390625",
      "lat": "38.03665161",
      "pingyin": "Chang'an",
      "create_time": "03/15/2018 14:28:06"
    },
    {
      "id": "130104",
      "name": "桥西区",
      "parent_id": "130100",
      "short_name": "桥西",
      "level": "3",
      "city_code": "0311",
      "post_code": "050091",
      "merger_name": "中国,河北省,石家庄市,桥西区",
      "lng": "114.46977234",
      "lat": "38.0322113",
      "pingyin": "Qiaoxi",
      "create_time": "03/15/2018 14:28:06"
    },
    {
      "id": "130105",
      "name": "新华区",
      "parent_id": "130100",
      "short_name": "新华",
      "level": "3",
      "city_code": "0311",
      "post_code": "050051",
      "merger_name": "中国,河北省,石家庄市,新华区",
      "lng": "114.46325684",
      "lat": "38.05088043",
      "pingyin": "Xinhua",
      "create_time": "03/15/2018 14:28:06"
    },
    {
      "id": "130107",
      "name": "井陉矿区",
      "parent_id": "130100",
      "short_name": "井陉矿区",
      "level": "3",
      "city_code": "0311",
      "post_code": "050100",
      "merger_name": "中国,河北省,石家庄市,井陉矿区",
      "lng": "114.06517792",
      "lat": "38.06705093",
      "pingyin": "Jingxingkuangqu",
      "create_time": "03/15/2018 14:28:06"
    },
    {
      "id": "130108",
      "name": "裕华区",
      "parent_id": "130100",
      "short_name": "裕华",
      "level": "3",
      "city_code": "0311",
      "post_code": "050031",
      "merger_name": "中国,河北省,石家庄市,裕华区",
      "lng": "114.53115082",
      "lat": "38.00603867",
      "pingyin": "Yuhua",
      "create_time": "03/15/2018 14:28:06"
    },
    {
      "id": "130109",
      "name": "藁城区",
      "parent_id": "130100",
      "short_name": "藁城",
      "level": "3",
      "city_code": "0311",
      "post_code": "052160",
      "merger_name": "中国,河北省,石家庄市,藁城区",
      "lng": "114.84671021",
      "lat": "38.0216217",
      "pingyin": "Gaocheng",
      "create_time": "03/15/2018 14:28:06"
    },
    {
      "id": "130110",
      "name": "鹿泉区",
      "parent_id": "130100",
      "short_name": "鹿泉",
      "level": "3",
      "city_code": "0311",
      "post_code": "050200",
      "merger_name": "中国,河北省,石家庄市,鹿泉区",
      "lng": "114.31346893",
      "lat": "38.08781815",
      "pingyin": "Luquan",
      "create_time": "03/15/2018 14:28:06"
    },
    {
      "id": "130111",
      "name": "栾城区",
      "parent_id": "130100",
      "short_name": "栾城",
      "level": "3",
      "city_code": "0311",
      "post_code": "051430",
      "merger_name": "中国,河北省,石家庄市,栾城区",
      "lng": "114.64833832",
      "lat": "37.90021896",
      "pingyin": "Luancheng",
      "create_time": "03/15/2018 14:28:06"
    },
    {
      "id": "130121",
      "name": "井陉县",
      "parent_id": "130100",
      "short_name": "井陉",
      "level": "3",
      "city_code": "0311",
      "post_code": "050300",
      "merger_name": "中国,河北省,石家庄市,井陉县",
      "lng": "114.1425705",
      "lat": "38.03688049",
      "pingyin": "Jingxing",
      "create_time": "03/15/2018 14:28:06"
    },
    {
      "id": "130123",
      "name": "正定县",
      "parent_id": "130100",
      "short_name": "正定",
      "level": "3",
      "city_code": "0311",
      "post_code": "050800",
      "merger_name": "中国,河北省,石家庄市,正定县",
      "lng": "114.5729599",
      "lat": "38.14445114",
      "pingyin": "Zhengding",
      "create_time": "03/15/2018 14:28:06"
    },
    {
      "id": "130125",
      "name": "行唐县",
      "parent_id": "130100",
      "short_name": "行唐",
      "level": "3",
      "city_code": "0311",
      "post_code": "050600",
      "merger_name": "中国,河北省,石家庄市,行唐县",
      "lng": "114.55316162",
      "lat": "38.4365387",
      "pingyin": "Xingtang",
      "create_time": "03/15/2018 14:28:06"
    },
    {
      "id": "130126",
      "name": "灵寿县",
      "parent_id": "130100",
      "short_name": "灵寿",
      "level": "3",
      "city_code": "0311",
      "post_code": "050500",
      "merger_name": "中国,河北省,石家庄市,灵寿县",
      "lng": "114.38259125",
      "lat": "38.30844879",
      "pingyin": "Lingshou",
      "create_time": "03/15/2018 14:28:06"
    },
    {
      "id": "130127",
      "name": "高邑县",
      "parent_id": "130100",
      "short_name": "高邑",
      "level": "3",
      "city_code": "0311",
      "post_code": "051330",
      "merger_name": "中国,河北省,石家庄市,高邑县",
      "lng": "114.61141968",
      "lat": "37.61555862",
      "pingyin": "Gaoyi",
      "create_time": "03/15/2018 14:28:06"
    },
    {
      "id": "130128",
      "name": "深泽县",
      "parent_id": "130100",
      "short_name": "深泽",
      "level": "3",
      "city_code": "0311",
      "post_code": "052560",
      "merger_name": "中国,河北省,石家庄市,深泽县",
      "lng": "115.20358276",
      "lat": "38.1835289",
      "pingyin": "Shenze",
      "create_time": "03/15/2018 14:28:06"
    },
    {
      "id": "130129",
      "name": "赞皇县",
      "parent_id": "130100",
      "short_name": "赞皇",
      "level": "3",
      "city_code": "0311",
      "post_code": "051230",
      "merger_name": "中国,河北省,石家庄市,赞皇县",
      "lng": "114.38774872",
      "lat": "37.66135025",
      "pingyin": "Zanhuang",
      "create_time": "03/15/2018 14:28:06"
    },
    {
      "id": "130130",
      "name": "无极县",
      "parent_id": "130100",
      "short_name": "无极",
      "level": "3",
      "city_code": "0311",
      "post_code": "052460",
      "merger_name": "中国,河北省,石家庄市,无极县",
      "lng": "114.97509003",
      "lat": "38.17652893",
      "pingyin": "Wuji",
      "create_time": "03/15/2018 14:28:06"
    },
    {
      "id": "130131",
      "name": "平山县",
      "parent_id": "130100",
      "short_name": "平山",
      "level": "3",
      "city_code": "0311",
      "post_code": "050400",
      "merger_name": "中国,河北省,石家庄市,平山县",
      "lng": "114.18599701",
      "lat": "38.2599411",
      "pingyin": "Pingshan",
      "create_time": "03/15/2018 14:28:06"
    },
    {
      "id": "130132",
      "name": "元氏县",
      "parent_id": "130100",
      "short_name": "元氏",
      "level": "3",
      "city_code": "0311",
      "post_code": "051130",
      "merger_name": "中国,河北省,石家庄市,元氏县",
      "lng": "114.52539062",
      "lat": "37.76668167",
      "pingyin": "Yuanshi",
      "create_time": "03/15/2018 14:28:06"
    },
    {
      "id": "130133",
      "name": "赵县",
      "parent_id": "130100",
      "short_name": "赵县",
      "level": "3",
      "city_code": "0311",
      "post_code": "051530",
      "merger_name": "中国,河北省,石家庄市,赵县",
      "lng": "114.77612305",
      "lat": "37.75627899",
      "pingyin": "Zhaoxian",
      "create_time": "03/15/2018 14:28:06"
    },
    {
      "id": "130181",
      "name": "辛集市",
      "parent_id": "130100",
      "short_name": "辛集",
      "level": "3",
      "city_code": "0311",
      "post_code": "052360",
      "merger_name": "中国,河北省,石家庄市,辛集市",
      "lng": "115.20626068",
      "lat": "37.94078827",
      "pingyin": "Xinji",
      "create_time": "03/15/2018 14:28:06"
    },
    {
      "id": "130183",
      "name": "晋州市",
      "parent_id": "130100",
      "short_name": "晋州",
      "level": "3",
      "city_code": "0311",
      "post_code": "052260",
      "merger_name": "中国,河北省,石家庄市,晋州市",
      "lng": "115.04347992",
      "lat": "38.03134918",
      "pingyin": "Jinzhou",
      "create_time": "03/15/2018 14:28:06"
    },
    {
      "id": "130184",
      "name": "新乐市",
      "parent_id": "130100",
      "short_name": "新乐",
      "level": "3",
      "city_code": "0311",
      "post_code": "050700",
      "merger_name": "中国,河北省,石家庄市,新乐市",
      "lng": "114.68984985",
      "lat": "38.34416962",
      "pingyin": "Xinle",
      "create_time": "03/15/2018 14:28:06"
    },
    {
      "id": "130200",
      "name": "唐山市",
      "parent_id": "130000",
      "short_name": "唐山",
      "level": "2",
      "city_code": "0315",
      "post_code": "063000",
      "merger_name": "中国,河北省,唐山市",
      "lng": "118.17539215",
      "lat": "39.63511276",
      "pingyin": "Tangshan",
      "create_time": "03/15/2018 14:28:06"
    },
    {
      "id": "130202",
      "name": "路南区",
      "parent_id": "130200",
      "short_name": "路南",
      "level": "3",
      "city_code": "0315",
      "post_code": "063000",
      "merger_name": "中国,河北省,唐山市,路南区",
      "lng": "118.15431213",
      "lat": "39.62504959",
      "pingyin": "Lunan",
      "create_time": "03/15/2018 14:28:06"
    },
    {
      "id": "130203",
      "name": "路北区",
      "parent_id": "130200",
      "short_name": "路北",
      "level": "3",
      "city_code": "0315",
      "post_code": "063000",
      "merger_name": "中国,河北省,唐山市,路北区",
      "lng": "118.20079041",
      "lat": "39.62435913",
      "pingyin": "Lubei",
      "create_time": "03/15/2018 14:28:06"
    },
    {
      "id": "130204",
      "name": "古冶区",
      "parent_id": "130200",
      "short_name": "古冶",
      "level": "3",
      "city_code": "0315",
      "post_code": "063100",
      "merger_name": "中国,河北省,唐山市,古冶区",
      "lng": "118.4580307",
      "lat": "39.71992874",
      "pingyin": "Guye",
      "create_time": "03/15/2018 14:28:06"
    },
    {
      "id": "130205",
      "name": "开平区",
      "parent_id": "130200",
      "short_name": "开平",
      "level": "3",
      "city_code": "0315",
      "post_code": "063021",
      "merger_name": "中国,河北省,唐山市,开平区",
      "lng": "118.26171112",
      "lat": "39.67127991",
      "pingyin": "Kaiping",
      "create_time": "03/15/2018 14:28:06"
    },
    {
      "id": "130207",
      "name": "丰南区",
      "parent_id": "130200",
      "short_name": "丰南",
      "level": "3",
      "city_code": "0315",
      "post_code": "063300",
      "merger_name": "中国,河北省,唐山市,丰南区",
      "lng": "118.11282349",
      "lat": "39.56483078",
      "pingyin": "Fengnan",
      "create_time": "03/15/2018 14:28:06"
    },
    {
      "id": "130208",
      "name": "丰润区",
      "parent_id": "130200",
      "short_name": "丰润",
      "level": "3",
      "city_code": "0315",
      "post_code": "064000",
      "merger_name": "中国,河北省,唐山市,丰润区",
      "lng": "118.12976074",
      "lat": "39.82440186",
      "pingyin": "Fengrun",
      "create_time": "03/15/2018 14:28:06"
    },
    {
      "id": "130209",
      "name": "曹妃甸区",
      "parent_id": "130200",
      "short_name": "曹妃甸",
      "level": "3",
      "city_code": "0315",
      "post_code": "063200",
      "merger_name": "中国,河北省,唐山市,曹妃甸区",
      "lng": "118.46038055",
      "lat": "39.27307129",
      "pingyin": "Caofeidian",
      "create_time": "03/15/2018 14:28:06"
    },
    {
      "id": "130223",
      "name": "滦县",
      "parent_id": "130200",
      "short_name": "滦县",
      "level": "3",
      "city_code": "0315",
      "post_code": "063700",
      "merger_name": "中国,河北省,唐山市,滦县",
      "lng": "118.70346069",
      "lat": "39.74055862",
      "pingyin": "Luanxian",
      "create_time": "03/15/2018 14:28:06"
    },
    {
      "id": "130224",
      "name": "滦南县",
      "parent_id": "130200",
      "short_name": "滦南",
      "level": "3",
      "city_code": "0315",
      "post_code": "063500",
      "merger_name": "中国,河北省,唐山市,滦南县",
      "lng": "118.67410278",
      "lat": "39.50389862",
      "pingyin": "Luannan",
      "create_time": "03/15/2018 14:28:06"
    },
    {
      "id": "130225",
      "name": "乐亭县",
      "parent_id": "130200",
      "short_name": "乐亭",
      "level": "3",
      "city_code": "0315",
      "post_code": "063600",
      "merger_name": "中国,河北省,唐山市,乐亭县",
      "lng": "118.91249847",
      "lat": "39.42560959",
      "pingyin": "Laoting",
      "create_time": "03/15/2018 14:28:06"
    },
    {
      "id": "130227",
      "name": "迁西县",
      "parent_id": "130200",
      "short_name": "迁西",
      "level": "3",
      "city_code": "0315",
      "post_code": "064300",
      "merger_name": "中国,河北省,唐山市,迁西县",
      "lng": "118.31616211",
      "lat": "40.14587021",
      "pingyin": "Qianxi",
      "create_time": "03/15/2018 14:28:06"
    },
    {
      "id": "130229",
      "name": "玉田县",
      "parent_id": "130200",
      "short_name": "玉田",
      "level": "3",
      "city_code": "0315",
      "post_code": "064100",
      "merger_name": "中国,河北省,唐山市,玉田县",
      "lng": "117.73880005",
      "lat": "39.90048981",
      "pingyin": "Yutian",
      "create_time": "03/15/2018 14:28:06"
    },
    {
      "id": "130281",
      "name": "遵化市",
      "parent_id": "130200",
      "short_name": "遵化",
      "level": "3",
      "city_code": "0315",
      "post_code": "064200",
      "merger_name": "中国,河北省,唐山市,遵化市",
      "lng": "117.96443939",
      "lat": "40.18740845",
      "pingyin": "Zunhua",
      "create_time": "03/15/2018 14:28:06"
    },
    {
      "id": "130283",
      "name": "迁安市",
      "parent_id": "130200",
      "short_name": "迁安",
      "level": "3",
      "city_code": "0315",
      "post_code": "064400",
      "merger_name": "中国,河北省,唐山市,迁安市",
      "lng": "118.70068359",
      "lat": "39.99832916",
      "pingyin": "Qian'an",
      "create_time": "03/15/2018 14:28:06"
    },
    {
      "id": "130300",
      "name": "秦皇岛市",
      "parent_id": "130000",
      "short_name": "秦皇岛",
      "level": "2",
      "city_code": "0335",
      "post_code": "066000",
      "merger_name": "中国,河北省,秦皇岛市",
      "lng": "119.58657837",
      "lat": "39.94253159",
      "pingyin": "Qinhuangdao",
      "create_time": "03/15/2018 14:28:06"
    },
    {
      "id": "130302",
      "name": "海港区",
      "parent_id": "130300",
      "short_name": "海港",
      "level": "3",
      "city_code": "0335",
      "post_code": "066000",
      "merger_name": "中国,河北省,秦皇岛市,海港区",
      "lng": "119.61045837",
      "lat": "39.93450165",
      "pingyin": "Haigang",
      "create_time": "03/15/2018 14:28:06"
    },
    {
      "id": "130303",
      "name": "山海关区",
      "parent_id": "130300",
      "short_name": "山海关",
      "level": "3",
      "city_code": "0335",
      "post_code": "066200",
      "merger_name": "中国,河北省,秦皇岛市,山海关区",
      "lng": "119.77562714",
      "lat": "39.9786911",
      "pingyin": "Shanhaiguan",
      "create_time": "03/15/2018 14:28:06"
    },
    {
      "id": "130304",
      "name": "北戴河区",
      "parent_id": "130300",
      "short_name": "北戴河",
      "level": "3",
      "city_code": "0335",
      "post_code": "066100",
      "merger_name": "中国,河北省,秦皇岛市,北戴河区",
      "lng": "119.48387909",
      "lat": "39.83407974",
      "pingyin": "Beidaihe",
      "create_time": "03/15/2018 14:28:06"
    },
    {
      "id": "130321",
      "name": "青龙满族自治县",
      "parent_id": "130300",
      "short_name": "青龙",
      "level": "3",
      "city_code": "0335",
      "post_code": "066500",
      "merger_name": "中国,河北省,秦皇岛市,青龙满族自治县",
      "lng": "118.9524231",
      "lat": "40.40742874",
      "pingyin": "Qinglong",
      "create_time": "03/15/2018 14:28:06"
    },
    {
      "id": "130322",
      "name": "昌黎县",
      "parent_id": "130300",
      "short_name": "昌黎",
      "level": "3",
      "city_code": "0335",
      "post_code": "066600",
      "merger_name": "中国,河北省,秦皇岛市,昌黎县",
      "lng": "119.16594696",
      "lat": "39.70883942",
      "pingyin": "Changli",
      "create_time": "03/15/2018 14:28:06"
    },
    {
      "id": "130323",
      "name": "抚宁县",
      "parent_id": "130300",
      "short_name": "抚宁",
      "level": "3",
      "city_code": "0335",
      "post_code": "066300",
      "merger_name": "中国,河北省,秦皇岛市,抚宁县",
      "lng": "119.24487305",
      "lat": "39.87538147",
      "pingyin": "Funing",
      "create_time": "03/15/2018 14:28:06"
    },
    {
      "id": "130324",
      "name": "卢龙县",
      "parent_id": "130300",
      "short_name": "卢龙",
      "level": "3",
      "city_code": "0335",
      "post_code": "066400",
      "merger_name": "中国,河北省,秦皇岛市,卢龙县",
      "lng": "118.8928833",
      "lat": "39.89176178",
      "pingyin": "Lulong",
      "create_time": "03/15/2018 14:28:06"
    },
    {
      "id": "130400",
      "name": "邯郸市",
      "parent_id": "130000",
      "short_name": "邯郸",
      "level": "2",
      "city_code": "0310",
      "post_code": "056002",
      "merger_name": "中国,河北省,邯郸市",
      "lng": "114.49068451",
      "lat": "36.61227417",
      "pingyin": "Handan",
      "create_time": "03/15/2018 14:28:06"
    },
    {
      "id": "130402",
      "name": "邯山区",
      "parent_id": "130400",
      "short_name": "邯山",
      "level": "3",
      "city_code": "0310",
      "post_code": "056001",
      "merger_name": "中国,河北省,邯郸市,邯山区",
      "lng": "114.48374939",
      "lat": "36.60005951",
      "pingyin": "Hanshan",
      "create_time": "03/15/2018 14:28:06"
    },
    {
      "id": "130403",
      "name": "丛台区",
      "parent_id": "130400",
      "short_name": "丛台",
      "level": "3",
      "city_code": "0310",
      "post_code": "056002",
      "merger_name": "中国,河北省,邯郸市,丛台区",
      "lng": "114.49343109",
      "lat": "36.61846924",
      "pingyin": "Congtai",
      "create_time": "03/15/2018 14:28:06"
    },
    {
      "id": "130404",
      "name": "复兴区",
      "parent_id": "130400",
      "short_name": "复兴",
      "level": "3",
      "city_code": "0310",
      "post_code": "056003",
      "merger_name": "中国,河北省,邯郸市,复兴区",
      "lng": "114.45928192",
      "lat": "36.61133957",
      "pingyin": "Fuxing",
      "create_time": "03/15/2018 14:28:06"
    },
    {
      "id": "130406",
      "name": "峰峰矿区",
      "parent_id": "130400",
      "short_name": "峰峰矿区",
      "level": "3",
      "city_code": "0310",
      "post_code": "056200",
      "merger_name": "中国,河北省,邯郸市,峰峰矿区",
      "lng": "114.21147919",
      "lat": "36.41936874",
      "pingyin": "Fengfengkuangqu",
      "create_time": "03/15/2018 14:28:06"
    },
    {
      "id": "130421",
      "name": "邯郸县",
      "parent_id": "130400",
      "short_name": "邯郸",
      "level": "3",
      "city_code": "0310",
      "post_code": "056101",
      "merger_name": "中国,河北省,邯郸市,邯郸县",
      "lng": "114.53102875",
      "lat": "36.59384918",
      "pingyin": "Handan",
      "create_time": "03/15/2018 14:28:06"
    },
    {
      "id": "130423",
      "name": "临漳县",
      "parent_id": "130400",
      "short_name": "临漳",
      "level": "3",
      "city_code": "0310",
      "post_code": "056600",
      "merger_name": "中国,河北省,邯郸市,临漳县",
      "lng": "114.61949921",
      "lat": "36.33460999",
      "pingyin": "Linzhang",
      "create_time": "03/15/2018 14:28:06"
    },
    {
      "id": "130424",
      "name": "成安县",
      "parent_id": "130400",
      "short_name": "成安",
      "level": "3",
      "city_code": "0310",
      "post_code": "056700",
      "merger_name": "中国,河北省,邯郸市,成安县",
      "lng": "114.66995239",
      "lat": "36.44411087",
      "pingyin": "Cheng'an",
      "create_time": "03/15/2018 14:28:06"
    },
    {
      "id": "130425",
      "name": "大名县",
      "parent_id": "130400",
      "short_name": "大名",
      "level": "3",
      "city_code": "0310",
      "post_code": "056900",
      "merger_name": "中国,河北省,邯郸市,大名县",
      "lng": "115.15361786",
      "lat": "36.27994156",
      "pingyin": "Daming",
      "create_time": "03/15/2018 14:28:06"
    },
    {
      "id": "130426",
      "name": "涉县",
      "parent_id": "130400",
      "short_name": "涉县",
      "level": "3",
      "city_code": "0310",
      "post_code": "056400",
      "merger_name": "中国,河北省,邯郸市,涉县",
      "lng": "113.6918335",
      "lat": "36.58071899",
      "pingyin": "Shexian",
      "create_time": "03/15/2018 14:28:06"
    },
    {
      "id": "130427",
      "name": "磁县",
      "parent_id": "130400",
      "short_name": "磁县",
      "level": "3",
      "city_code": "0310",
      "post_code": "056500",
      "merger_name": "中国,河北省,邯郸市,磁县",
      "lng": "114.37387085",
      "lat": "36.37392044",
      "pingyin": "Cixian",
      "create_time": "03/15/2018 14:28:06"
    },
    {
      "id": "130428",
      "name": "肥乡县",
      "parent_id": "130400",
      "short_name": "肥乡",
      "level": "3",
      "city_code": "0310",
      "post_code": "057550",
      "merger_name": "中国,河北省,邯郸市,肥乡县",
      "lng": "114.79998016",
      "lat": "36.548069",
      "pingyin": "Feixiang",
      "create_time": "03/15/2018 14:28:06"
    },
    {
      "id": "130429",
      "name": "永年县",
      "parent_id": "130400",
      "short_name": "永年",
      "level": "3",
      "city_code": "0310",
      "post_code": "057150",
      "merger_name": "中国,河北省,邯郸市,永年县",
      "lng": "114.48925018",
      "lat": "36.78356171",
      "pingyin": "Yongnian",
      "create_time": "03/15/2018 14:28:06"
    },
    {
      "id": "130430",
      "name": "邱县",
      "parent_id": "130400",
      "short_name": "邱县",
      "level": "3",
      "city_code": "0310",
      "post_code": "057450",
      "merger_name": "中国,河北省,邯郸市,邱县",
      "lng": "115.17407227",
      "lat": "36.82081985",
      "pingyin": "Qiuxian",
      "create_time": "03/15/2018 14:28:06"
    },
    {
      "id": "130431",
      "name": "鸡泽县",
      "parent_id": "130400",
      "short_name": "鸡泽",
      "level": "3",
      "city_code": "0310",
      "post_code": "057350",
      "merger_name": "中国,河北省,邯郸市,鸡泽县",
      "lng": "114.87419891",
      "lat": "36.92374039",
      "pingyin": "Jize",
      "create_time": "03/15/2018 14:28:06"
    },
    {
      "id": "130432",
      "name": "广平县",
      "parent_id": "130400",
      "short_name": "广平",
      "level": "3",
      "city_code": "0310",
      "post_code": "057650",
      "merger_name": "中国,河北省,邯郸市,广平县",
      "lng": "114.9465332",
      "lat": "36.48046112",
      "pingyin": "Guangping",
      "create_time": "03/15/2018 14:28:06"
    },
    {
      "id": "130433",
      "name": "馆陶县",
      "parent_id": "130400",
      "short_name": "馆陶",
      "level": "3",
      "city_code": "0310",
      "post_code": "057750",
      "merger_name": "中国,河北省,邯郸市,馆陶县",
      "lng": "115.2991333",
      "lat": "36.53718948",
      "pingyin": "Guantao",
      "create_time": "03/15/2018 14:28:06"
    },
    {
      "id": "130434",
      "name": "魏县",
      "parent_id": "130400",
      "short_name": "魏县",
      "level": "3",
      "city_code": "0310",
      "post_code": "056800",
      "merger_name": "中国,河北省,邯郸市,魏县",
      "lng": "114.93518066",
      "lat": "36.36170959",
      "pingyin": "Weixian",
      "create_time": "03/15/2018 14:28:06"
    },
    {
      "id": "130435",
      "name": "曲周县",
      "parent_id": "130400",
      "short_name": "曲周",
      "level": "3",
      "city_code": "0310",
      "post_code": "057250",
      "merger_name": "中国,河北省,邯郸市,曲周县",
      "lng": "114.9519577",
      "lat": "36.77671051",
      "pingyin": "Quzhou",
      "create_time": "03/15/2018 14:28:06"
    },
    {
      "id": "130481",
      "name": "武安市",
      "parent_id": "130400",
      "short_name": "武安",
      "level": "3",
      "city_code": "0310",
      "post_code": "056300",
      "merger_name": "中国,河北省,邯郸市,武安市",
      "lng": "114.20153046",
      "lat": "36.69281006",
      "pingyin": "Wu'an",
      "create_time": "03/15/2018 14:28:06"
    },
    {
      "id": "130500",
      "name": "邢台市",
      "parent_id": "130000",
      "short_name": "邢台",
      "level": "2",
      "city_code": "0319",
      "post_code": "054001",
      "merger_name": "中国,河北省,邢台市",
      "lng": "114.5088501",
      "lat": "37.06819916",
      "pingyin": "Xingtai",
      "create_time": "03/15/2018 14:28:06"
    },
    {
      "id": "130502",
      "name": "桥东区",
      "parent_id": "130500",
      "short_name": "桥东",
      "level": "3",
      "city_code": "0319",
      "post_code": "054001",
      "merger_name": "中国,河北省,邢台市,桥东区",
      "lng": "114.50724792",
      "lat": "37.06800842",
      "pingyin": "Qiaodong",
      "create_time": "03/15/2018 14:28:06"
    },
    {
      "id": "130503",
      "name": "桥西区",
      "parent_id": "130500",
      "short_name": "桥西",
      "level": "3",
      "city_code": "0319",
      "post_code": "054000",
      "merger_name": "中国,河北省,邢台市,桥西区",
      "lng": "114.46803284",
      "lat": "37.05984116",
      "pingyin": "Qiaoxi",
      "create_time": "03/15/2018 14:28:06"
    },
    {
      "id": "130521",
      "name": "邢台县",
      "parent_id": "130500",
      "short_name": "邢台",
      "level": "3",
      "city_code": "0319",
      "post_code": "054001",
      "merger_name": "中国,河北省,邢台市,邢台县",
      "lng": "114.56575012",
      "lat": "37.04560089",
      "pingyin": "Xingtai",
      "create_time": "03/15/2018 14:28:06"
    },
    {
      "id": "130522",
      "name": "临城县",
      "parent_id": "130500",
      "short_name": "临城",
      "level": "3",
      "city_code": "0319",
      "post_code": "054300",
      "merger_name": "中国,河北省,邢台市,临城县",
      "lng": "114.5038681",
      "lat": "37.43976974",
      "pingyin": "Lincheng",
      "create_time": "03/15/2018 14:28:06"
    },
    {
      "id": "130523",
      "name": "内丘县",
      "parent_id": "130500",
      "short_name": "内丘",
      "level": "3",
      "city_code": "0319",
      "post_code": "054200",
      "merger_name": "中国,河北省,邢台市,内丘县",
      "lng": "114.51212311",
      "lat": "37.28670883",
      "pingyin": "Neiqiu",
      "create_time": "03/15/2018 14:28:06"
    },
    {
      "id": "130524",
      "name": "柏乡县",
      "parent_id": "130500",
      "short_name": "柏乡",
      "level": "3",
      "city_code": "0319",
      "post_code": "055450",
      "merger_name": "中国,河北省,邢台市,柏乡县",
      "lng": "114.69332123",
      "lat": "37.48242188",
      "pingyin": "Baixiang",
      "create_time": "03/15/2018 14:28:06"
    },
    {
      "id": "130525",
      "name": "隆尧县",
      "parent_id": "130500",
      "short_name": "隆尧",
      "level": "3",
      "city_code": "0319",
      "post_code": "055350",
      "merger_name": "中国,河北省,邢台市,隆尧县",
      "lng": "114.77615356",
      "lat": "37.35351181",
      "pingyin": "Longyao",
      "create_time": "03/15/2018 14:28:06"
    },
    {
      "id": "130526",
      "name": "任县",
      "parent_id": "130500",
      "short_name": "任县",
      "level": "3",
      "city_code": "0319",
      "post_code": "055150",
      "merger_name": "中国,河北省,邢台市,任县",
      "lng": "114.68419647",
      "lat": "37.1257515",
      "pingyin": "Renxian",
      "create_time": "03/15/2018 14:28:06"
    },
    {
      "id": "130527",
      "name": "南和县",
      "parent_id": "130500",
      "short_name": "南和",
      "level": "3",
      "city_code": "0319",
      "post_code": "054400",
      "merger_name": "中国,河北省,邢台市,南和县",
      "lng": "114.68370819",
      "lat": "37.004879",
      "pingyin": "Nanhe",
      "create_time": "03/15/2018 14:28:06"
    },
    {
      "id": "130528",
      "name": "宁晋县",
      "parent_id": "130500",
      "short_name": "宁晋",
      "level": "3",
      "city_code": "0319",
      "post_code": "055550",
      "merger_name": "中国,河北省,邢台市,宁晋县",
      "lng": "114.9211731",
      "lat": "37.61695862",
      "pingyin": "Ningjin",
      "create_time": "03/15/2018 14:28:06"
    },
    {
      "id": "130529",
      "name": "巨鹿县",
      "parent_id": "130500",
      "short_name": "巨鹿",
      "level": "3",
      "city_code": "0319",
      "post_code": "055250",
      "merger_name": "中国,河北省,邢台市,巨鹿县",
      "lng": "115.03524017",
      "lat": "37.21800995",
      "pingyin": "Julu",
      "create_time": "03/15/2018 14:28:06"
    },
    {
      "id": "130530",
      "name": "新河县",
      "parent_id": "130500",
      "short_name": "新河",
      "level": "3",
      "city_code": "0319",
      "post_code": "055650",
      "merger_name": "中国,河北省,邢台市,新河县",
      "lng": "115.2498703",
      "lat": "37.52717972",
      "pingyin": "Xinhe",
      "create_time": "03/15/2018 14:28:06"
    },
    {
      "id": "130531",
      "name": "广宗县",
      "parent_id": "130500",
      "short_name": "广宗",
      "level": "3",
      "city_code": "0319",
      "post_code": "054600",
      "merger_name": "中国,河北省,邢台市,广宗县",
      "lng": "115.14253998",
      "lat": "37.07460022",
      "pingyin": "Guangzong",
      "create_time": "03/15/2018 14:28:06"
    },
    {
      "id": "130532",
      "name": "平乡县",
      "parent_id": "130500",
      "short_name": "平乡",
      "level": "3",
      "city_code": "0319",
      "post_code": "054500",
      "merger_name": "中国,河北省,邢台市,平乡县",
      "lng": "115.03002167",
      "lat": "37.06317139",
      "pingyin": "Pingxiang",
      "create_time": "03/15/2018 14:28:06"
    },
    {
      "id": "130533",
      "name": "威县",
      "parent_id": "130500",
      "short_name": "威县",
      "level": "3",
      "city_code": "0319",
      "post_code": "054700",
      "merger_name": "中国,河北省,邢台市,威县",
      "lng": "115.26370239",
      "lat": "36.97679901",
      "pingyin": "Weixian",
      "create_time": "03/15/2018 14:28:06"
    },
    {
      "id": "130534",
      "name": "清河县",
      "parent_id": "130500",
      "short_name": "清河",
      "level": "3",
      "city_code": "0319",
      "post_code": "054800",
      "merger_name": "中国,河北省,邢台市,清河县",
      "lng": "115.66478729",
      "lat": "37.0712204",
      "pingyin": "Qinghe",
      "create_time": "03/15/2018 14:28:06"
    },
    {
      "id": "130535",
      "name": "临西县",
      "parent_id": "130500",
      "short_name": "临西",
      "level": "3",
      "city_code": "0319",
      "post_code": "054900",
      "merger_name": "中国,河北省,邢台市,临西县",
      "lng": "115.50096893",
      "lat": "36.87078094",
      "pingyin": "Linxi",
      "create_time": "03/15/2018 14:28:06"
    },
    {
      "id": "130581",
      "name": "南宫市",
      "parent_id": "130500",
      "short_name": "南宫",
      "level": "3",
      "city_code": "0319",
      "post_code": "055750",
      "merger_name": "中国,河北省,邢台市,南宫市",
      "lng": "115.39067841",
      "lat": "37.35799026",
      "pingyin": "Nangong",
      "create_time": "03/15/2018 14:28:06"
    },
    {
      "id": "130582",
      "name": "沙河市",
      "parent_id": "130500",
      "short_name": "沙河",
      "level": "3",
      "city_code": "0319",
      "post_code": "054100",
      "merger_name": "中国,河北省,邢台市,沙河市",
      "lng": "114.49810028",
      "lat": "36.85770035",
      "pingyin": "Shahe",
      "create_time": "03/15/2018 14:28:06"
    },
    {
      "id": "130600",
      "name": "保定市",
      "parent_id": "130000",
      "short_name": "保定",
      "level": "2",
      "city_code": "0312",
      "post_code": "071052",
      "merger_name": "中国,河北省,保定市",
      "lng": "115.48233032",
      "lat": "38.86765671",
      "pingyin": "Baoding",
      "create_time": "03/15/2018 14:28:06"
    },
    {
      "id": "130602",
      "name": "新市区",
      "parent_id": "130600",
      "short_name": "新市",
      "level": "3",
      "city_code": "0312",
      "post_code": "071051",
      "merger_name": "中国,河北省,保定市,新市区",
      "lng": "115.45870209",
      "lat": "38.87751007",
      "pingyin": "Xinshi",
      "create_time": "03/15/2018 14:28:06"
    },
    {
      "id": "130603",
      "name": "北市区",
      "parent_id": "130600",
      "short_name": "北市",
      "level": "3",
      "city_code": "0312",
      "post_code": "071000",
      "merger_name": "中国,河北省,保定市,北市区",
      "lng": "115.49714661",
      "lat": "38.88322067",
      "pingyin": "Beishi",
      "create_time": "03/15/2018 14:28:06"
    },
    {
      "id": "130604",
      "name": "南市区",
      "parent_id": "130600",
      "short_name": "南市",
      "level": "3",
      "city_code": "0312",
      "post_code": "071001",
      "merger_name": "中国,河北省,保定市,南市区",
      "lng": "115.52858734",
      "lat": "38.85454941",
      "pingyin": "Nanshi",
      "create_time": "03/15/2018 14:28:06"
    },
    {
      "id": "130621",
      "name": "满城县",
      "parent_id": "130600",
      "short_name": "满城",
      "level": "3",
      "city_code": "0312",
      "post_code": "072150",
      "merger_name": "中国,河北省,保定市,满城县",
      "lng": "115.3229599",
      "lat": "38.94971848",
      "pingyin": "Mancheng",
      "create_time": "03/15/2018 14:28:06"
    },
    {
      "id": "130622",
      "name": "清苑县",
      "parent_id": "130600",
      "short_name": "清苑",
      "level": "3",
      "city_code": "0312",
      "post_code": "071100",
      "merger_name": "中国,河北省,保定市,清苑县",
      "lng": "115.49266815",
      "lat": "38.76708984",
      "pingyin": "Qingyuan",
      "create_time": "03/15/2018 14:28:06"
    },
    {
      "id": "130623",
      "name": "涞水县",
      "parent_id": "130600",
      "short_name": "涞水",
      "level": "3",
      "city_code": "0312",
      "post_code": "074100",
      "merger_name": "中国,河北省,保定市,涞水县",
      "lng": "115.71517181",
      "lat": "39.39403915",
      "pingyin": "Laishui",
      "create_time": "03/15/2018 14:28:06"
    },
    {
      "id": "130624",
      "name": "阜平县",
      "parent_id": "130600",
      "short_name": "阜平",
      "level": "3",
      "city_code": "0312",
      "post_code": "073200",
      "merger_name": "中国,河北省,保定市,阜平县",
      "lng": "114.19683075",
      "lat": "38.84762955",
      "pingyin": "Fuping",
      "create_time": "03/15/2018 14:28:06"
    },
    {
      "id": "130625",
      "name": "徐水县",
      "parent_id": "130600",
      "short_name": "徐水",
      "level": "3",
      "city_code": "0312",
      "post_code": "072550",
      "merger_name": "中国,河北省,保定市,徐水县",
      "lng": "115.65828705",
      "lat": "39.02098846",
      "pingyin": "Xushui",
      "create_time": "03/15/2018 14:28:06"
    },
    {
      "id": "130626",
      "name": "定兴县",
      "parent_id": "130600",
      "short_name": "定兴",
      "level": "3",
      "city_code": "0312",
      "post_code": "072650",
      "merger_name": "中国,河北省,保定市,定兴县",
      "lng": "115.80786133",
      "lat": "39.26311874",
      "pingyin": "Dingxing",
      "create_time": "03/15/2018 14:28:06"
    },
    {
      "id": "130627",
      "name": "唐县",
      "parent_id": "130600",
      "short_name": "唐县",
      "level": "3",
      "city_code": "0312",
      "post_code": "072350",
      "merger_name": "中国,河北省,保定市,唐县",
      "lng": "114.98516083",
      "lat": "38.74512863",
      "pingyin": "Tangxian",
      "create_time": "03/15/2018 14:28:06"
    },
    {
      "id": "130628",
      "name": "高阳县",
      "parent_id": "130600",
      "short_name": "高阳",
      "level": "3",
      "city_code": "0312",
      "post_code": "071500",
      "merger_name": "中国,河北省,保定市,高阳县",
      "lng": "115.77880096",
      "lat": "38.70003128",
      "pingyin": "Gaoyang",
      "create_time": "03/15/2018 14:28:06"
    },
    {
      "id": "130629",
      "name": "容城县",
      "parent_id": "130600",
      "short_name": "容城",
      "level": "3",
      "city_code": "0312",
      "post_code": "071700",
      "merger_name": "中国,河北省,保定市,容城县",
      "lng": "115.87158203",
      "lat": "39.05350113",
      "pingyin": "Rongcheng",
      "create_time": "03/15/2018 14:28:06"
    },
    {
      "id": "130630",
      "name": "涞源县",
      "parent_id": "130600",
      "short_name": "涞源",
      "level": "3",
      "city_code": "0312",
      "post_code": "074300",
      "merger_name": "中国,河北省,保定市,涞源县",
      "lng": "114.69127655",
      "lat": "39.35388184",
      "pingyin": "Laiyuan",
      "create_time": "03/15/2018 14:28:06"
    },
    {
      "id": "130631",
      "name": "望都县",
      "parent_id": "130600",
      "short_name": "望都",
      "level": "3",
      "city_code": "0312",
      "post_code": "072450",
      "merger_name": "中国,河北省,保定市,望都县",
      "lng": "115.15670013",
      "lat": "38.70996094",
      "pingyin": "Wangdu",
      "create_time": "03/15/2018 14:28:06"
    },
    {
      "id": "130632",
      "name": "安新县",
      "parent_id": "130600",
      "short_name": "安新",
      "level": "3",
      "city_code": "0312",
      "post_code": "071600",
      "merger_name": "中国,河北省,保定市,安新县",
      "lng": "115.93556976",
      "lat": "38.93532181",
      "pingyin": "Anxin",
      "create_time": "03/15/2018 14:28:06"
    },
    {
      "id": "130633",
      "name": "易县",
      "parent_id": "130600",
      "short_name": "易县",
      "level": "3",
      "city_code": "0312",
      "post_code": "074200",
      "merger_name": "中国,河北省,保定市,易县",
      "lng": "115.49810028",
      "lat": "39.34885025",
      "pingyin": "Yixian",
      "create_time": "03/15/2018 14:28:06"
    },
    {
      "id": "130634",
      "name": "曲阳县",
      "parent_id": "130600",
      "short_name": "曲阳",
      "level": "3",
      "city_code": "0312",
      "post_code": "073100",
      "merger_name": "中国,河北省,保定市,曲阳县",
      "lng": "114.70123291",
      "lat": "38.62154007",
      "pingyin": "Quyang",
      "create_time": "03/15/2018 14:28:06"
    },
    {
      "id": "130635",
      "name": "蠡县",
      "parent_id": "130600",
      "short_name": "蠡县",
      "level": "3",
      "city_code": "0312",
      "post_code": "071400",
      "merger_name": "中国,河北省,保定市,蠡县",
      "lng": "115.57717133",
      "lat": "38.48973846",
      "pingyin": "Lixian",
      "create_time": "03/15/2018 14:28:06"
    },
    {
      "id": "130636",
      "name": "顺平县",
      "parent_id": "130600",
      "short_name": "顺平",
      "level": "3",
      "city_code": "0312",
      "post_code": "072250",
      "merger_name": "中国,河北省,保定市,顺平县",
      "lng": "115.13469696",
      "lat": "38.83853912",
      "pingyin": "Shunping",
      "create_time": "03/15/2018 14:28:06"
    },
    {
      "id": "130637",
      "name": "博野县",
      "parent_id": "130600",
      "short_name": "博野",
      "level": "3",
      "city_code": "0312",
      "post_code": "071300",
      "merger_name": "中国,河北省,保定市,博野县",
      "lng": "115.47032928",
      "lat": "38.45640182",
      "pingyin": "Boye",
      "create_time": "03/15/2018 14:28:06"
    },
    {
      "id": "130638",
      "name": "雄县",
      "parent_id": "130600",
      "short_name": "雄县",
      "level": "3",
      "city_code": "0312",
      "post_code": "071800",
      "merger_name": "中国,河北省,保定市,雄县",
      "lng": "116.1087265",
      "lat": "38.9944191",
      "pingyin": "Xiongxian",
      "create_time": "03/15/2018 14:28:06"
    },
    {
      "id": "130681",
      "name": "涿州市",
      "parent_id": "130600",
      "short_name": "涿州",
      "level": "3",
      "city_code": "0312",
      "post_code": "072750",
      "merger_name": "中国,河北省,保定市,涿州市",
      "lng": "115.98062134",
      "lat": "39.48622131",
      "pingyin": "Zhuozhou",
      "create_time": "03/15/2018 14:28:06"
    },
    {
      "id": "130682",
      "name": "定州市",
      "parent_id": "130600",
      "short_name": "定州",
      "level": "3",
      "city_code": "0312",
      "post_code": "073000",
      "merger_name": "中国,河北省,保定市,定州市",
      "lng": "114.99019623",
      "lat": "38.51623154",
      "pingyin": "Dingzhou",
      "create_time": "03/15/2018 14:28:06"
    },
    {
      "id": "130683",
      "name": "安国市",
      "parent_id": "130600",
      "short_name": "安国",
      "level": "3",
      "city_code": "0312",
      "post_code": "071200",
      "merger_name": "中国,河北省,保定市,安国市",
      "lng": "115.32321167",
      "lat": "38.41390991",
      "pingyin": "Anguo",
      "create_time": "03/15/2018 14:28:06"
    },
    {
      "id": "130684",
      "name": "高碑店市",
      "parent_id": "130600",
      "short_name": "高碑店",
      "level": "3",
      "city_code": "0312",
      "post_code": "074000",
      "merger_name": "中国,河北省,保定市,高碑店市",
      "lng": "115.87368011",
      "lat": "39.32654953",
      "pingyin": "Gaobeidian",
      "create_time": "03/15/2018 14:28:06"
    },
    {
      "id": "130700",
      "name": "张家口市",
      "parent_id": "130000",
      "short_name": "张家口",
      "level": "2",
      "city_code": "0313",
      "post_code": "075000",
      "merger_name": "中国,河北省,张家口市",
      "lng": "114.88409424",
      "lat": "40.81190109",
      "pingyin": "Zhangjiakou",
      "create_time": "03/15/2018 14:28:06"
    },
    {
      "id": "130702",
      "name": "桥东区",
      "parent_id": "130700",
      "short_name": "桥东",
      "level": "3",
      "city_code": "0313",
      "post_code": "075000",
      "merger_name": "中国,河北省,张家口市,桥东区",
      "lng": "114.89430237",
      "lat": "40.7884407",
      "pingyin": "Qiaodong",
      "create_time": "03/15/2018 14:28:06"
    },
    {
      "id": "130703",
      "name": "桥西区",
      "parent_id": "130700",
      "short_name": "桥西",
      "level": "3",
      "city_code": "0313",
      "post_code": "075061",
      "merger_name": "中国,河北省,张家口市,桥西区",
      "lng": "114.86962128",
      "lat": "40.81945038",
      "pingyin": "Qiaoxi",
      "create_time": "03/15/2018 14:28:06"
    },
    {
      "id": "130705",
      "name": "宣化区",
      "parent_id": "130700",
      "short_name": "宣化",
      "level": "3",
      "city_code": "0313",
      "post_code": "075100",
      "merger_name": "中国,河北省,张家口市,宣化区",
      "lng": "115.06542969",
      "lat": "40.60956955",
      "pingyin": "Xuanhua",
      "create_time": "03/15/2018 14:28:06"
    },
    {
      "id": "130706",
      "name": "下花园区",
      "parent_id": "130700",
      "short_name": "下花园",
      "level": "3",
      "city_code": "0313",
      "post_code": "075300",
      "merger_name": "中国,河北省,张家口市,下花园区",
      "lng": "115.28743744",
      "lat": "40.5023613",
      "pingyin": "Xiahuayuan",
      "create_time": "03/15/2018 14:28:06"
    },
    {
      "id": "130721",
      "name": "宣化县",
      "parent_id": "130700",
      "short_name": "宣化",
      "level": "3",
      "city_code": "0313",
      "post_code": "075100",
      "merger_name": "中国,河北省,张家口市,宣化县",
      "lng": "115.15496826",
      "lat": "40.56618118",
      "pingyin": "Xuanhua",
      "create_time": "03/15/2018 14:28:06"
    },
    {
      "id": "130722",
      "name": "张北县",
      "parent_id": "130700",
      "short_name": "张北",
      "level": "3",
      "city_code": "0313",
      "post_code": "076450",
      "merger_name": "中国,河北省,张家口市,张北县",
      "lng": "114.71431732",
      "lat": "41.15977097",
      "pingyin": "Zhangbei",
      "create_time": "03/15/2018 14:28:06"
    },
    {
      "id": "130723",
      "name": "康保县",
      "parent_id": "130700",
      "short_name": "康保",
      "level": "3",
      "city_code": "0313",
      "post_code": "076650",
      "merger_name": "中国,河北省,张家口市,康保县",
      "lng": "114.60031128",
      "lat": "41.85224915",
      "pingyin": "Kangbao",
      "create_time": "03/15/2018 14:28:06"
    },
    {
      "id": "130724",
      "name": "沽源县",
      "parent_id": "130700",
      "short_name": "沽源",
      "level": "3",
      "city_code": "0313",
      "post_code": "076550",
      "merger_name": "中国,河北省,张家口市,沽源县",
      "lng": "115.688591",
      "lat": "41.66959",
      "pingyin": "Guyuan",
      "create_time": "03/15/2018 14:28:06"
    },
    {
      "id": "130725",
      "name": "尚义县",
      "parent_id": "130700",
      "short_name": "尚义",
      "level": "3",
      "city_code": "0313",
      "post_code": "076750",
      "merger_name": "中国,河北省,张家口市,尚义县",
      "lng": "113.97133636",
      "lat": "41.07781982",
      "pingyin": "Shangyi",
      "create_time": "03/15/2018 14:28:06"
    },
    {
      "id": "130726",
      "name": "蔚县",
      "parent_id": "130700",
      "short_name": "蔚县",
      "level": "3",
      "city_code": "0313",
      "post_code": "075700",
      "merger_name": "中国,河北省,张家口市,蔚县",
      "lng": "114.58892059",
      "lat": "39.84067154",
      "pingyin": "Yuxian",
      "create_time": "03/15/2018 14:28:06"
    },
    {
      "id": "130727",
      "name": "阳原县",
      "parent_id": "130700",
      "short_name": "阳原",
      "level": "3",
      "city_code": "0313",
      "post_code": "075800",
      "merger_name": "中国,河北省,张家口市,阳原县",
      "lng": "114.1505127",
      "lat": "40.10361099",
      "pingyin": "Yangyuan",
      "create_time": "03/15/2018 14:28:06"
    },
    {
      "id": "130728",
      "name": "怀安县",
      "parent_id": "130700",
      "short_name": "怀安",
      "level": "3",
      "city_code": "0313",
      "post_code": "076150",
      "merger_name": "中国,河北省,张家口市,怀安县",
      "lng": "114.3855896",
      "lat": "40.67425156",
      "pingyin": "Huai'an",
      "create_time": "03/15/2018 14:28:06"
    },
    {
      "id": "130729",
      "name": "万全县",
      "parent_id": "130700",
      "short_name": "万全",
      "level": "3",
      "city_code": "0313",
      "post_code": "076250",
      "merger_name": "中国,河北省,张家口市,万全县",
      "lng": "114.7405014",
      "lat": "40.76694107",
      "pingyin": "Wanquan",
      "create_time": "03/15/2018 14:28:06"
    },
    {
      "id": "130730",
      "name": "怀来县",
      "parent_id": "130700",
      "short_name": "怀来",
      "level": "3",
      "city_code": "0313",
      "post_code": "075400",
      "merger_name": "中国,河北省,张家口市,怀来县",
      "lng": "115.51773071",
      "lat": "40.4153595",
      "pingyin": "Huailai",
      "create_time": "03/15/2018 14:28:06"
    },
    {
      "id": "130731",
      "name": "涿鹿县",
      "parent_id": "130700",
      "short_name": "涿鹿",
      "level": "3",
      "city_code": "0313",
      "post_code": "075600",
      "merger_name": "中国,河北省,张家口市,涿鹿县",
      "lng": "115.22402954",
      "lat": "40.37636185",
      "pingyin": "Zhuolu",
      "create_time": "03/15/2018 14:28:06"
    },
    {
      "id": "130732",
      "name": "赤城县",
      "parent_id": "130700",
      "short_name": "赤城",
      "level": "3",
      "city_code": "0313",
      "post_code": "075500",
      "merger_name": "中国,河北省,张家口市,赤城县",
      "lng": "115.83187103",
      "lat": "40.91437912",
      "pingyin": "Chicheng",
      "create_time": "03/15/2018 14:28:06"
    },
    {
      "id": "130733",
      "name": "崇礼县",
      "parent_id": "130700",
      "short_name": "崇礼",
      "level": "3",
      "city_code": "0313",
      "post_code": "076350",
      "merger_name": "中国,河北省,张家口市,崇礼县",
      "lng": "115.27993011",
      "lat": "40.97518921",
      "pingyin": "Chongli",
      "create_time": "03/15/2018 14:28:06"
    },
    {
      "id": "130800",
      "name": "承德市",
      "parent_id": "130000",
      "short_name": "承德",
      "level": "2",
      "city_code": "0314",
      "post_code": "067000",
      "merger_name": "中国,河北省,承德市",
      "lng": "117.93915558",
      "lat": "40.97620392",
      "pingyin": "Chengde",
      "create_time": "03/15/2018 14:28:06"
    },
    {
      "id": "130802",
      "name": "双桥区",
      "parent_id": "130800",
      "short_name": "双桥",
      "level": "3",
      "city_code": "0314",
      "post_code": "067000",
      "merger_name": "中国,河北省,承德市,双桥区",
      "lng": "117.94319916",
      "lat": "40.97465897",
      "pingyin": "Shuangqiao",
      "create_time": "03/15/2018 14:28:06"
    },
    {
      "id": "130803",
      "name": "双滦区",
      "parent_id": "130800",
      "short_name": "双滦",
      "level": "3",
      "city_code": "0314",
      "post_code": "067001",
      "merger_name": "中国,河北省,承德市,双滦区",
      "lng": "117.74487305",
      "lat": "40.95375061",
      "pingyin": "Shuangluan",
      "create_time": "03/15/2018 14:28:06"
    },
    {
      "id": "130804",
      "name": "鹰手营子矿区",
      "parent_id": "130800",
      "short_name": "鹰手营子矿区",
      "level": "3",
      "city_code": "0314",
      "post_code": "067200",
      "merger_name": "中国,河北省,承德市,鹰手营子矿区",
      "lng": "117.65985107",
      "lat": "40.54743958",
      "pingyin": "Yingshouyingzikuangqu",
      "create_time": "03/15/2018 14:28:06"
    },
    {
      "id": "130821",
      "name": "承德县",
      "parent_id": "130800",
      "short_name": "承德",
      "level": "3",
      "city_code": "0314",
      "post_code": "067400",
      "merger_name": "中国,河北省,承德市,承德县",
      "lng": "118.1763916",
      "lat": "40.76985168",
      "pingyin": "Chengde",
      "create_time": "03/15/2018 14:28:06"
    },
    {
      "id": "130822",
      "name": "兴隆县",
      "parent_id": "130800",
      "short_name": "兴隆",
      "level": "3",
      "city_code": "0314",
      "post_code": "067300",
      "merger_name": "中国,河北省,承德市,兴隆县",
      "lng": "117.50073242",
      "lat": "40.41709137",
      "pingyin": "Xinglong",
      "create_time": "03/15/2018 14:28:06"
    },
    {
      "id": "130823",
      "name": "平泉县",
      "parent_id": "130800",
      "short_name": "平泉",
      "level": "3",
      "city_code": "0314",
      "post_code": "067500",
      "merger_name": "中国,河北省,承德市,平泉县",
      "lng": "118.7019577",
      "lat": "41.01839066",
      "pingyin": "Pingquan",
      "create_time": "03/15/2018 14:28:06"
    },
    {
      "id": "130824",
      "name": "滦平县",
      "parent_id": "130800",
      "short_name": "滦平",
      "level": "3",
      "city_code": "0314",
      "post_code": "068250",
      "merger_name": "中国,河北省,承德市,滦平县",
      "lng": "117.33276367",
      "lat": "40.94147873",
      "pingyin": "Luanping",
      "create_time": "03/15/2018 14:28:06"
    },
    {
      "id": "130825",
      "name": "隆化县",
      "parent_id": "130800",
      "short_name": "隆化",
      "level": "3",
      "city_code": "0314",
      "post_code": "068150",
      "merger_name": "中国,河北省,承德市,隆化县",
      "lng": "117.72969818",
      "lat": "41.31412125",
      "pingyin": "Longhua",
      "create_time": "03/15/2018 14:28:06"
    },
    {
      "id": "130826",
      "name": "丰宁满族自治县",
      "parent_id": "130800",
      "short_name": "丰宁",
      "level": "3",
      "city_code": "0314",
      "post_code": "068350",
      "merger_name": "中国,河北省,承德市,丰宁满族自治县",
      "lng": "116.64920044",
      "lat": "41.2048111",
      "pingyin": "Fengning",
      "create_time": "03/15/2018 14:28:06"
    },
    {
      "id": "130827",
      "name": "宽城满族自治县",
      "parent_id": "130800",
      "short_name": "宽城",
      "level": "3",
      "city_code": "0314",
      "post_code": "067600",
      "merger_name": "中国,河北省,承德市,宽城满族自治县",
      "lng": "118.49176025",
      "lat": "40.60829163",
      "pingyin": "Kuancheng",
      "create_time": "03/15/2018 14:28:06"
    },
    {
      "id": "130828",
      "name": "围场满族蒙古族自治县",
      "parent_id": "130800",
      "short_name": "围场",
      "level": "3",
      "city_code": "0314",
      "post_code": "068450",
      "merger_name": "中国,河北省,承德市,围场满族蒙古族自治县",
      "lng": "117.76010132",
      "lat": "41.94367981",
      "pingyin": "Weichang",
      "create_time": "03/15/2018 14:28:06"
    },
    {
      "id": "130900",
      "name": "沧州市",
      "parent_id": "130000",
      "short_name": "沧州",
      "level": "2",
      "city_code": "0317",
      "post_code": "061001",
      "merger_name": "中国,河北省,沧州市",
      "lng": "116.85746002",
      "lat": "38.31058121",
      "pingyin": "Cangzhou",
      "create_time": "03/15/2018 14:28:06"
    },
    {
      "id": "130902",
      "name": "新华区",
      "parent_id": "130900",
      "short_name": "新华",
      "level": "3",
      "city_code": "0317",
      "post_code": "061000",
      "merger_name": "中国,河北省,沧州市,新华区",
      "lng": "116.86643219",
      "lat": "38.31438065",
      "pingyin": "Xinhua",
      "create_time": "03/15/2018 14:28:06"
    },
    {
      "id": "130903",
      "name": "运河区",
      "parent_id": "130900",
      "short_name": "运河",
      "level": "3",
      "city_code": "0317",
      "post_code": "061001",
      "merger_name": "中国,河北省,沧州市,运河区",
      "lng": "116.85706329",
      "lat": "38.31351852",
      "pingyin": "Yunhe",
      "create_time": "03/15/2018 14:28:06"
    },
    {
      "id": "130921",
      "name": "沧县",
      "parent_id": "130900",
      "short_name": "沧县",
      "level": "3",
      "city_code": "0317",
      "post_code": "061000",
      "merger_name": "中国,河北省,沧州市,沧县",
      "lng": "116.8781662",
      "lat": "38.29360962",
      "pingyin": "Cangxian",
      "create_time": "03/15/2018 14:28:06"
    },
    {
      "id": "130922",
      "name": "青县",
      "parent_id": "130900",
      "short_name": "青县",
      "level": "3",
      "city_code": "0317",
      "post_code": "062650",
      "merger_name": "中国,河北省,沧州市,青县",
      "lng": "116.80316162",
      "lat": "38.58345032",
      "pingyin": "Qingxian",
      "create_time": "03/15/2018 14:28:06"
    },
    {
      "id": "130923",
      "name": "东光县",
      "parent_id": "130900",
      "short_name": "东光",
      "level": "3",
      "city_code": "0317",
      "post_code": "061600",
      "merger_name": "中国,河北省,沧州市,东光县",
      "lng": "116.53668213",
      "lat": "37.88570023",
      "pingyin": "Dongguang",
      "create_time": "03/15/2018 14:28:06"
    },
    {
      "id": "130924",
      "name": "海兴县",
      "parent_id": "130900",
      "short_name": "海兴",
      "level": "3",
      "city_code": "0317",
      "post_code": "061200",
      "merger_name": "中国,河北省,沧州市,海兴县",
      "lng": "117.49758148",
      "lat": "38.13957977",
      "pingyin": "Haixing",
      "create_time": "03/15/2018 14:28:06"
    },
    {
      "id": "130925",
      "name": "盐山县",
      "parent_id": "130900",
      "short_name": "盐山",
      "level": "3",
      "city_code": "0317",
      "post_code": "061300",
      "merger_name": "中国,河北省,沧州市,盐山县",
      "lng": "117.23091888",
      "lat": "38.05646896",
      "pingyin": "Yanshan",
      "create_time": "03/15/2018 14:28:06"
    },
    {
      "id": "130926",
      "name": "肃宁县",
      "parent_id": "130900",
      "short_name": "肃宁",
      "level": "3",
      "city_code": "0317",
      "post_code": "062350",
      "merger_name": "中国,河北省,沧州市,肃宁县",
      "lng": "115.82971191",
      "lat": "38.42272186",
      "pingyin": "Suning",
      "create_time": "03/15/2018 14:28:06"
    },
    {
      "id": "130927",
      "name": "南皮县",
      "parent_id": "130900",
      "short_name": "南皮",
      "level": "3",
      "city_code": "0317",
      "post_code": "061500",
      "merger_name": "中国,河北省,沧州市,南皮县",
      "lng": "116.70223999",
      "lat": "38.0410881",
      "pingyin": "Nanpi",
      "create_time": "03/15/2018 14:28:06"
    },
    {
      "id": "130928",
      "name": "吴桥县",
      "parent_id": "130900",
      "short_name": "吴桥",
      "level": "3",
      "city_code": "0317",
      "post_code": "061800",
      "merger_name": "中国,河北省,沧州市,吴桥县",
      "lng": "116.38469696",
      "lat": "37.62546158",
      "pingyin": "Wuqiao",
      "create_time": "03/15/2018 14:28:06"
    },
    {
      "id": "130929",
      "name": "献县",
      "parent_id": "130900",
      "short_name": "献县",
      "level": "3",
      "city_code": "0317",
      "post_code": "062250",
      "merger_name": "中国,河北省,沧州市,献县",
      "lng": "116.12695312",
      "lat": "38.19227982",
      "pingyin": "Xianxian",
      "create_time": "03/15/2018 14:28:06"
    },
    {
      "id": "130930",
      "name": "孟村回族自治县",
      "parent_id": "130900",
      "short_name": "孟村",
      "level": "3",
      "city_code": "0317",
      "post_code": "061400",
      "merger_name": "中国,河北省,沧州市,孟村回族自治县",
      "lng": "117.10411835",
      "lat": "38.05337906",
      "pingyin": "Mengcun",
      "create_time": "03/15/2018 14:28:06"
    },
    {
      "id": "130981",
      "name": "泊头市",
      "parent_id": "130900",
      "short_name": "泊头",
      "level": "3",
      "city_code": "0317",
      "post_code": "062150",
      "merger_name": "中国,河北省,沧州市,泊头市",
      "lng": "116.57823944",
      "lat": "38.08359146",
      "pingyin": "Botou",
      "create_time": "03/15/2018 14:28:06"
    },
    {
      "id": "130982",
      "name": "任丘市",
      "parent_id": "130900",
      "short_name": "任丘",
      "level": "3",
      "city_code": "0317",
      "post_code": "062550",
      "merger_name": "中国,河北省,沧州市,任丘市",
      "lng": "116.103302",
      "lat": "38.71123886",
      "pingyin": "Renqiu",
      "create_time": "03/15/2018 14:28:06"
    },
    {
      "id": "130983",
      "name": "黄骅市",
      "parent_id": "130900",
      "short_name": "黄骅",
      "level": "3",
      "city_code": "0317",
      "post_code": "061100",
      "merger_name": "中国,河北省,沧州市,黄骅市",
      "lng": "117.33882904",
      "lat": "38.37060165",
      "pingyin": "Huanghua",
      "create_time": "03/15/2018 14:28:06"
    },
    {
      "id": "130984",
      "name": "河间市",
      "parent_id": "130900",
      "short_name": "河间",
      "level": "3",
      "city_code": "0317",
      "post_code": "062450",
      "merger_name": "中国,河北省,沧州市,河间市",
      "lng": "116.09929657",
      "lat": "38.44549179",
      "pingyin": "Hejian",
      "create_time": "03/15/2018 14:28:06"
    },
    {
      "id": "131000",
      "name": "廊坊市",
      "parent_id": "130000",
      "short_name": "廊坊",
      "level": "2",
      "city_code": "0316",
      "post_code": "065000",
      "merger_name": "中国,河北省,廊坊市",
      "lng": "116.71387482",
      "lat": "39.52924347",
      "pingyin": "Langfang",
      "create_time": "03/15/2018 14:28:06"
    },
    {
      "id": "131002",
      "name": "安次区",
      "parent_id": "131000",
      "short_name": "安次",
      "level": "3",
      "city_code": "0316",
      "post_code": "065000",
      "merger_name": "中国,河北省,廊坊市,安次区",
      "lng": "116.70307922",
      "lat": "39.52056885",
      "pingyin": "Anci",
      "create_time": "03/15/2018 14:28:06"
    },
    {
      "id": "131003",
      "name": "广阳区",
      "parent_id": "131000",
      "short_name": "广阳",
      "level": "3",
      "city_code": "0316",
      "post_code": "065000",
      "merger_name": "中国,河北省,廊坊市,广阳区",
      "lng": "116.71069336",
      "lat": "39.52278137",
      "pingyin": "Guangyang",
      "create_time": "03/15/2018 14:28:06"
    },
    {
      "id": "131022",
      "name": "固安县",
      "parent_id": "131000",
      "short_name": "固安",
      "level": "3",
      "city_code": "0316",
      "post_code": "065500",
      "merger_name": "中国,河北省,廊坊市,固安县",
      "lng": "116.29915619",
      "lat": "39.4383316",
      "pingyin": "Gu'an",
      "create_time": "03/15/2018 14:28:06"
    },
    {
      "id": "131023",
      "name": "永清县",
      "parent_id": "131000",
      "short_name": "永清",
      "level": "3",
      "city_code": "0316",
      "post_code": "065600",
      "merger_name": "中国,河北省,廊坊市,永清县",
      "lng": "116.5009079",
      "lat": "39.32069016",
      "pingyin": "Yongqing",
      "create_time": "03/15/2018 14:28:06"
    },
    {
      "id": "131024",
      "name": "香河县",
      "parent_id": "131000",
      "short_name": "香河",
      "level": "3",
      "city_code": "0316",
      "post_code": "065400",
      "merger_name": "中国,河北省,廊坊市,香河县",
      "lng": "117.00634003",
      "lat": "39.76132965",
      "pingyin": "Xianghe",
      "create_time": "03/15/2018 14:28:06"
    },
    {
      "id": "131025",
      "name": "大城县",
      "parent_id": "131000",
      "short_name": "大城",
      "level": "3",
      "city_code": "0316",
      "post_code": "065900",
      "merger_name": "中国,河北省,廊坊市,大城县",
      "lng": "116.65352631",
      "lat": "38.70534134",
      "pingyin": "Daicheng",
      "create_time": "03/15/2018 14:28:06"
    },
    {
      "id": "131026",
      "name": "文安县",
      "parent_id": "131000",
      "short_name": "文安",
      "level": "3",
      "city_code": "0316",
      "post_code": "065800",
      "merger_name": "中国,河北省,廊坊市,文安县",
      "lng": "116.45845795",
      "lat": "38.87324905",
      "pingyin": "Wen'an",
      "create_time": "03/15/2018 14:28:06"
    },
    {
      "id": "131028",
      "name": "大厂回族自治县",
      "parent_id": "131000",
      "short_name": "大厂",
      "level": "3",
      "city_code": "0316",
      "post_code": "065300",
      "merger_name": "中国,河北省,廊坊市,大厂回族自治县",
      "lng": "116.98915863",
      "lat": "39.88648987",
      "pingyin": "Dachang",
      "create_time": "03/15/2018 14:28:06"
    },
    {
      "id": "131081",
      "name": "霸州市",
      "parent_id": "131000",
      "short_name": "霸州",
      "level": "3",
      "city_code": "0316",
      "post_code": "065700",
      "merger_name": "中国,河北省,廊坊市,霸州市",
      "lng": "116.39154053",
      "lat": "39.12569046",
      "pingyin": "Bazhou",
      "create_time": "03/15/2018 14:28:06"
    },
    {
      "id": "131082",
      "name": "三河市",
      "parent_id": "131000",
      "short_name": "三河",
      "level": "3",
      "city_code": "0316",
      "post_code": "065200",
      "merger_name": "中国,河北省,廊坊市,三河市",
      "lng": "117.07228851",
      "lat": "39.98358154",
      "pingyin": "Sanhe",
      "create_time": "03/15/2018 14:28:06"
    },
    {
      "id": "131100",
      "name": "衡水市",
      "parent_id": "130000",
      "short_name": "衡水",
      "level": "2",
      "city_code": "0318",
      "post_code": "053000",
      "merger_name": "中国,河北省,衡水市",
      "lng": "115.66599274",
      "lat": "37.73509598",
      "pingyin": "Hengshui",
      "create_time": "03/15/2018 14:28:06"
    },
    {
      "id": "131102",
      "name": "桃城区",
      "parent_id": "131100",
      "short_name": "桃城",
      "level": "3",
      "city_code": "0318",
      "post_code": "053000",
      "merger_name": "中国,河北省,衡水市,桃城区",
      "lng": "115.67529297",
      "lat": "37.73498917",
      "pingyin": "Taocheng",
      "create_time": "03/15/2018 14:28:06"
    },
    {
      "id": "131121",
      "name": "枣强县",
      "parent_id": "131100",
      "short_name": "枣强",
      "level": "3",
      "city_code": "0318",
      "post_code": "053100",
      "merger_name": "中国,河北省,衡水市,枣强县",
      "lng": "115.72576141",
      "lat": "37.51026917",
      "pingyin": "Zaoqiang",
      "create_time": "03/15/2018 14:28:06"
    },
    {
      "id": "131122",
      "name": "武邑县",
      "parent_id": "131100",
      "short_name": "武邑",
      "level": "3",
      "city_code": "0318",
      "post_code": "053400",
      "merger_name": "中国,河北省,衡水市,武邑县",
      "lng": "115.88748169",
      "lat": "37.80181122",
      "pingyin": "Wuyi",
      "create_time": "03/15/2018 14:28:06"
    },
    {
      "id": "131123",
      "name": "武强县",
      "parent_id": "131100",
      "short_name": "武强",
      "level": "3",
      "city_code": "0318",
      "post_code": "053300",
      "merger_name": "中国,河北省,衡水市,武强县",
      "lng": "115.98226166",
      "lat": "38.04138184",
      "pingyin": "Wuqiang",
      "create_time": "03/15/2018 14:28:06"
    },
    {
      "id": "131124",
      "name": "饶阳县",
      "parent_id": "131100",
      "short_name": "饶阳",
      "level": "3",
      "city_code": "0318",
      "post_code": "053900",
      "merger_name": "中国,河北省,衡水市,饶阳县",
      "lng": "115.72557831",
      "lat": "38.23529053",
      "pingyin": "Raoyang",
      "create_time": "03/15/2018 14:28:06"
    },
    {
      "id": "131125",
      "name": "安平县",
      "parent_id": "131100",
      "short_name": "安平",
      "level": "3",
      "city_code": "0318",
      "post_code": "053600",
      "merger_name": "中国,河北省,衡水市,安平县",
      "lng": "115.51876068",
      "lat": "38.23387909",
      "pingyin": "Anping",
      "create_time": "03/15/2018 14:28:06"
    },
    {
      "id": "131126",
      "name": "故城县",
      "parent_id": "131100",
      "short_name": "故城",
      "level": "3",
      "city_code": "0318",
      "post_code": "053800",
      "merger_name": "中国,河北省,衡水市,故城县",
      "lng": "115.97075653",
      "lat": "37.34772873",
      "pingyin": "Gucheng",
      "create_time": "03/15/2018 14:28:06"
    },
    {
      "id": "131127",
      "name": "景县",
      "parent_id": "131100",
      "short_name": "景县",
      "level": "3",
      "city_code": "0318",
      "post_code": "053500",
      "merger_name": "中国,河北省,衡水市,景县",
      "lng": "116.26904297",
      "lat": "37.69260025",
      "pingyin": "Jingxian",
      "create_time": "03/15/2018 14:28:06"
    },
    {
      "id": "131128",
      "name": "阜城县",
      "parent_id": "131100",
      "short_name": "阜城",
      "level": "3",
      "city_code": "0318",
      "post_code": "053700",
      "merger_name": "中国,河北省,衡水市,阜城县",
      "lng": "116.14431",
      "lat": "37.86880875",
      "pingyin": "Fucheng",
      "create_time": "03/15/2018 14:28:06"
    },
    {
      "id": "131181",
      "name": "冀州市",
      "parent_id": "131100",
      "short_name": "冀州",
      "level": "3",
      "city_code": "0318",
      "post_code": "053200",
      "merger_name": "中国,河北省,衡水市,冀州市",
      "lng": "115.57933807",
      "lat": "37.5508194",
      "pingyin": "Jizhou",
      "create_time": "03/15/2018 14:28:06"
    },
    {
      "id": "131182",
      "name": "深州市",
      "parent_id": "131100",
      "short_name": "深州",
      "level": "3",
      "city_code": "0318",
      "post_code": "053800",
      "merger_name": "中国,河北省,衡水市,深州市",
      "lng": "115.55992889",
      "lat": "38.001091",
      "pingyin": "Shenzhou",
      "create_time": "03/15/2018 14:28:06"
    },
    {
      "id": "140000",
      "name": "山西省",
      "parent_id": "100000",
      "short_name": "山西",
      "level": "1",
      "city_code": "",
      "post_code": "",
      "merger_name": "中国,山西省",
      "lng": "112.54924774",
      "lat": "37.8570137",
      "pingyin": "Shanxi",
      "create_time": "03/15/2018 14:28:06"
    },
    {
      "id": "140100",
      "name": "太原市",
      "parent_id": "140000",
      "short_name": "太原",
      "level": "2",
      "city_code": "0351",
      "post_code": "030082",
      "merger_name": "中国,山西省,太原市",
      "lng": "112.54924774",
      "lat": "37.8570137",
      "pingyin": "Taiyuan",
      "create_time": "03/15/2018 14:28:06"
    },
    {
      "id": "140105",
      "name": "小店区",
      "parent_id": "140100",
      "short_name": "小店",
      "level": "3",
      "city_code": "0351",
      "post_code": "030032",
      "merger_name": "中国,山西省,太原市,小店区",
      "lng": "112.56877899",
      "lat": "37.73564911",
      "pingyin": "Xiaodian",
      "create_time": "03/15/2018 14:28:06"
    },
    {
      "id": "140106",
      "name": "迎泽区",
      "parent_id": "140100",
      "short_name": "迎泽",
      "level": "3",
      "city_code": "0351",
      "post_code": "030002",
      "merger_name": "中国,山西省,太原市,迎泽区",
      "lng": "112.56337738",
      "lat": "37.86325836",
      "pingyin": "Yingze",
      "create_time": "03/15/2018 14:28:06"
    },
    {
      "id": "140107",
      "name": "杏花岭区",
      "parent_id": "140100",
      "short_name": "杏花岭",
      "level": "3",
      "city_code": "0351",
      "post_code": "030009",
      "merger_name": "中国,山西省,太原市,杏花岭区",
      "lng": "112.5623703",
      "lat": "37.88428879",
      "pingyin": "Xinghualing",
      "create_time": "03/15/2018 14:28:06"
    },
    {
      "id": "140108",
      "name": "尖草坪区",
      "parent_id": "140100",
      "short_name": "尖草坪",
      "level": "3",
      "city_code": "0351",
      "post_code": "030023",
      "merger_name": "中国,山西省,太原市,尖草坪区",
      "lng": "112.48709106",
      "lat": "37.94192886",
      "pingyin": "Jiancaoping",
      "create_time": "03/15/2018 14:28:06"
    },
    {
      "id": "140109",
      "name": "万柏林区",
      "parent_id": "140100",
      "short_name": "万柏林",
      "level": "3",
      "city_code": "0351",
      "post_code": "030024",
      "merger_name": "中国,山西省,太原市,万柏林区",
      "lng": "112.51553345",
      "lat": "37.85923004",
      "pingyin": "Wanbailin",
      "create_time": "03/15/2018 14:28:06"
    },
    {
      "id": "140110",
      "name": "晋源区",
      "parent_id": "140100",
      "short_name": "晋源",
      "level": "3",
      "city_code": "0351",
      "post_code": "030025",
      "merger_name": "中国,山西省,太原市,晋源区",
      "lng": "112.47985077",
      "lat": "37.72478867",
      "pingyin": "Jinyuan",
      "create_time": "03/15/2018 14:28:06"
    },
    {
      "id": "140121",
      "name": "清徐县",
      "parent_id": "140100",
      "short_name": "清徐",
      "level": "3",
      "city_code": "0351",
      "post_code": "030400",
      "merger_name": "中国,山西省,太原市,清徐县",
      "lng": "112.35887909",
      "lat": "37.60757828",
      "pingyin": "Qingxu",
      "create_time": "03/15/2018 14:28:06"
    },
    {
      "id": "140122",
      "name": "阳曲县",
      "parent_id": "140100",
      "short_name": "阳曲",
      "level": "3",
      "city_code": "0351",
      "post_code": "030100",
      "merger_name": "中国,山西省,太原市,阳曲县",
      "lng": "112.67861176",
      "lat": "38.05989075",
      "pingyin": "Yangqu",
      "create_time": "03/15/2018 14:28:06"
    },
    {
      "id": "140123",
      "name": "娄烦县",
      "parent_id": "140100",
      "short_name": "娄烦",
      "level": "3",
      "city_code": "0351",
      "post_code": "030300",
      "merger_name": "中国,山西省,太原市,娄烦县",
      "lng": "111.79473114",
      "lat": "38.06689072",
      "pingyin": "Loufan",
      "create_time": "03/15/2018 14:28:06"
    },
    {
      "id": "140181",
      "name": "古交市",
      "parent_id": "140100",
      "short_name": "古交",
      "level": "3",
      "city_code": "0351",
      "post_code": "030200",
      "merger_name": "中国,山西省,太原市,古交市",
      "lng": "112.16918182",
      "lat": "37.90982819",
      "pingyin": "Gujiao",
      "create_time": "03/15/2018 14:28:06"
    },
    {
      "id": "140200",
      "name": "大同市",
      "parent_id": "140000",
      "short_name": "大同",
      "level": "2",
      "city_code": "0352",
      "post_code": "037008",
      "merger_name": "中国,山西省,大同市",
      "lng": "113.29525757",
      "lat": "40.09030914",
      "pingyin": "Datong",
      "create_time": "03/15/2018 14:28:06"
    },
    {
      "id": "140202",
      "name": "城区",
      "parent_id": "140200",
      "short_name": "城区",
      "level": "3",
      "city_code": "0352",
      "post_code": "037008",
      "merger_name": "中国,山西省,大同市,城区",
      "lng": "113.29799652",
      "lat": "40.07566071",
      "pingyin": "Chengqu",
      "create_time": "03/15/2018 14:28:06"
    },
    {
      "id": "140203",
      "name": "矿区",
      "parent_id": "140200",
      "short_name": "矿区",
      "level": "3",
      "city_code": "0352",
      "post_code": "037003",
      "merger_name": "中国,山西省,大同市,矿区",
      "lng": "113.17720032",
      "lat": "40.03684998",
      "pingyin": "Kuangqu",
      "create_time": "03/15/2018 14:28:06"
    },
    {
      "id": "140211",
      "name": "南郊区",
      "parent_id": "140200",
      "short_name": "南郊",
      "level": "3",
      "city_code": "0352",
      "post_code": "037001",
      "merger_name": "中国,山西省,大同市,南郊区",
      "lng": "113.14946747",
      "lat": "40.00539017",
      "pingyin": "Nanjiao",
      "create_time": "03/15/2018 14:28:06"
    },
    {
      "id": "140212",
      "name": "新荣区",
      "parent_id": "140200",
      "short_name": "新荣",
      "level": "3",
      "city_code": "0352",
      "post_code": "037002",
      "merger_name": "中国,山西省,大同市,新荣区",
      "lng": "113.13504028",
      "lat": "40.25617981",
      "pingyin": "Xinrong",
      "create_time": "03/15/2018 14:28:06"
    },
    {
      "id": "140221",
      "name": "阳高县",
      "parent_id": "140200",
      "short_name": "阳高",
      "level": "3",
      "city_code": "0352",
      "post_code": "038100",
      "merger_name": "中国,山西省,大同市,阳高县",
      "lng": "113.75012207",
      "lat": "40.36256027",
      "pingyin": "Yanggao",
      "create_time": "03/15/2018 14:28:06"
    },
    {
      "id": "140222",
      "name": "天镇县",
      "parent_id": "140200",
      "short_name": "天镇",
      "level": "3",
      "city_code": "0352",
      "post_code": "038200",
      "merger_name": "中国,山西省,大同市,天镇县",
      "lng": "114.0931015",
      "lat": "40.42298889",
      "pingyin": "Tianzhen",
      "create_time": "03/15/2018 14:28:06"
    },
    {
      "id": "140223",
      "name": "广灵县",
      "parent_id": "140200",
      "short_name": "广灵",
      "level": "3",
      "city_code": "0352",
      "post_code": "037500",
      "merger_name": "中国,山西省,大同市,广灵县",
      "lng": "114.28204346",
      "lat": "39.76081848",
      "pingyin": "Guangling",
      "create_time": "03/15/2018 14:28:06"
    },
    {
      "id": "140224",
      "name": "灵丘县",
      "parent_id": "140200",
      "short_name": "灵丘",
      "level": "3",
      "city_code": "0352",
      "post_code": "034400",
      "merger_name": "中国,山西省,大同市,灵丘县",
      "lng": "114.23671722",
      "lat": "39.44042969",
      "pingyin": "Lingqiu",
      "create_time": "03/15/2018 14:28:06"
    },
    {
      "id": "140225",
      "name": "浑源县",
      "parent_id": "140200",
      "short_name": "浑源",
      "level": "3",
      "city_code": "0352",
      "post_code": "037400",
      "merger_name": "中国,山西省,大同市,浑源县",
      "lng": "113.69551849",
      "lat": "39.69961929",
      "pingyin": "Hunyuan",
      "create_time": "03/15/2018 14:28:06"
    },
    {
      "id": "140226",
      "name": "左云县",
      "parent_id": "140200",
      "short_name": "左云",
      "level": "3",
      "city_code": "0352",
      "post_code": "037100",
      "merger_name": "中国,山西省,大同市,左云县",
      "lng": "112.70265961",
      "lat": "40.01335907",
      "pingyin": "Zuoyun",
      "create_time": "03/15/2018 14:28:06"
    },
    {
      "id": "140227",
      "name": "大同县",
      "parent_id": "140200",
      "short_name": "大同",
      "level": "3",
      "city_code": "0352",
      "post_code": "037300",
      "merger_name": "中国,山西省,大同市,大同县",
      "lng": "113.61212158",
      "lat": "40.04011917",
      "pingyin": "Datong",
      "create_time": "03/15/2018 14:28:06"
    },
    {
      "id": "140300",
      "name": "阳泉市",
      "parent_id": "140000",
      "short_name": "阳泉",
      "level": "2",
      "city_code": "0353",
      "post_code": "045000",
      "merger_name": "中国,山西省,阳泉市",
      "lng": "113.58328247",
      "lat": "37.86118698",
      "pingyin": "Yangquan",
      "create_time": "03/15/2018 14:28:06"
    },
    {
      "id": "140302",
      "name": "城区",
      "parent_id": "140300",
      "short_name": "城区",
      "level": "3",
      "city_code": "0353",
      "post_code": "045000",
      "merger_name": "中国,山西省,阳泉市,城区",
      "lng": "113.60069275",
      "lat": "37.84740067",
      "pingyin": "Chengqu",
      "create_time": "03/15/2018 14:28:06"
    },
    {
      "id": "140303",
      "name": "矿区",
      "parent_id": "140300",
      "short_name": "矿区",
      "level": "3",
      "city_code": "0353",
      "post_code": "045000",
      "merger_name": "中国,山西省,阳泉市,矿区",
      "lng": "113.55677032",
      "lat": "37.86894989",
      "pingyin": "Kuangqu",
      "create_time": "03/15/2018 14:28:06"
    },
    {
      "id": "140311",
      "name": "郊区",
      "parent_id": "140300",
      "short_name": "郊区",
      "level": "3",
      "city_code": "0353",
      "post_code": "045011",
      "merger_name": "中国,山西省,阳泉市,郊区",
      "lng": "113.58538818",
      "lat": "37.94139099",
      "pingyin": "Jiaoqu",
      "create_time": "03/15/2018 14:28:06"
    },
    {
      "id": "140321",
      "name": "平定县",
      "parent_id": "140300",
      "short_name": "平定",
      "level": "3",
      "city_code": "0353",
      "post_code": "045200",
      "merger_name": "中国,山西省,阳泉市,平定县",
      "lng": "113.65789032",
      "lat": "37.78601074",
      "pingyin": "Pingding",
      "create_time": "03/15/2018 14:28:06"
    },
    {
      "id": "140322",
      "name": "盂县",
      "parent_id": "140300",
      "short_name": "盂县",
      "level": "3",
      "city_code": "0353",
      "post_code": "045100",
      "merger_name": "中国,山西省,阳泉市,盂县",
      "lng": "113.41235352",
      "lat": "38.08578873",
      "pingyin": "Yuxian",
      "create_time": "03/15/2018 14:28:06"
    },
    {
      "id": "140400",
      "name": "长治市",
      "parent_id": "140000",
      "short_name": "长治",
      "level": "2",
      "city_code": "0355",
      "post_code": "046000",
      "merger_name": "中国,山西省,长治市",
      "lng": "113.11355591",
      "lat": "36.19111252",
      "pingyin": "Changzhi",
      "create_time": "03/15/2018 14:28:06"
    },
    {
      "id": "140402",
      "name": "城区",
      "parent_id": "140400",
      "short_name": "城区",
      "level": "3",
      "city_code": "0355",
      "post_code": "046011",
      "merger_name": "中国,山西省,长治市,城区",
      "lng": "113.12307739",
      "lat": "36.20351028",
      "pingyin": "Chengqu",
      "create_time": "03/15/2018 14:28:06"
    },
    {
      "id": "140411",
      "name": "郊区",
      "parent_id": "140400",
      "short_name": "郊区",
      "level": "3",
      "city_code": "0355",
      "post_code": "046011",
      "merger_name": "中国,山西省,长治市,郊区",
      "lng": "113.12653351",
      "lat": "36.1991806",
      "pingyin": "Jiaoqu",
      "create_time": "03/15/2018 14:28:06"
    },
    {
      "id": "140421",
      "name": "长治县",
      "parent_id": "140400",
      "short_name": "长治",
      "level": "3",
      "city_code": "0355",
      "post_code": "047100",
      "merger_name": "中国,山西省,长治市,长治县",
      "lng": "113.0479126",
      "lat": "36.04721832",
      "pingyin": "Changzhi",
      "create_time": "03/15/2018 14:28:06"
    },
    {
      "id": "140423",
      "name": "襄垣县",
      "parent_id": "140400",
      "short_name": "襄垣",
      "level": "3",
      "city_code": "0355",
      "post_code": "046200",
      "merger_name": "中国,山西省,长治市,襄垣县",
      "lng": "113.05156708",
      "lat": "36.53527069",
      "pingyin": "Xiangyuan",
      "create_time": "03/15/2018 14:28:06"
    },
    {
      "id": "140424",
      "name": "屯留县",
      "parent_id": "140400",
      "short_name": "屯留",
      "level": "3",
      "city_code": "0355",
      "post_code": "046100",
      "merger_name": "中国,山西省,长治市,屯留县",
      "lng": "112.89196014",
      "lat": "36.31578827",
      "pingyin": "Tunliu",
      "create_time": "03/15/2018 14:28:06"
    },
    {
      "id": "140425",
      "name": "平顺县",
      "parent_id": "140400",
      "short_name": "平顺",
      "level": "3",
      "city_code": "0355",
      "post_code": "047400",
      "merger_name": "中国,山西省,长治市,平顺县",
      "lng": "113.43602753",
      "lat": "36.20005035",
      "pingyin": "Pingshun",
      "create_time": "03/15/2018 14:28:06"
    },
    {
      "id": "140426",
      "name": "黎城县",
      "parent_id": "140400",
      "short_name": "黎城",
      "level": "3",
      "city_code": "0355",
      "post_code": "047600",
      "merger_name": "中国,山西省,长治市,黎城县",
      "lng": "113.38765717",
      "lat": "36.5030098",
      "pingyin": "Licheng",
      "create_time": "03/15/2018 14:28:06"
    },
    {
      "id": "140427",
      "name": "壶关县",
      "parent_id": "140400",
      "short_name": "壶关",
      "level": "3",
      "city_code": "0355",
      "post_code": "047300",
      "merger_name": "中国,山西省,长治市,壶关县",
      "lng": "113.20700073",
      "lat": "36.11301041",
      "pingyin": "Huguan",
      "create_time": "03/15/2018 14:28:06"
    },
    {
      "id": "140428",
      "name": "长子县",
      "parent_id": "140400",
      "short_name": "长子",
      "level": "3",
      "city_code": "0355",
      "post_code": "046600",
      "merger_name": "中国,山西省,长治市,长子县",
      "lng": "112.87731171",
      "lat": "36.12125015",
      "pingyin": "Zhangzi",
      "create_time": "03/15/2018 14:28:06"
    },
    {
      "id": "140429",
      "name": "武乡县",
      "parent_id": "140400",
      "short_name": "武乡",
      "level": "3",
      "city_code": "0355",
      "post_code": "046300",
      "merger_name": "中国,山西省,长治市,武乡县",
      "lng": "112.86342621",
      "lat": "36.83686829",
      "pingyin": "Wuxiang",
      "create_time": "03/15/2018 14:28:06"
    },
    {
      "id": "140430",
      "name": "沁县",
      "parent_id": "140400",
      "short_name": "沁县",
      "level": "3",
      "city_code": "0355",
      "post_code": "046400",
      "merger_name": "中国,山西省,长治市,沁县",
      "lng": "112.69863129",
      "lat": "36.75627899",
      "pingyin": "Qinxian",
      "create_time": "03/15/2018 14:28:06"
    },
    {
      "id": "140431",
      "name": "沁源县",
      "parent_id": "140400",
      "short_name": "沁源",
      "level": "3",
      "city_code": "0355",
      "post_code": "046500",
      "merger_name": "中国,山西省,长治市,沁源县",
      "lng": "112.33757782",
      "lat": "36.50008011",
      "pingyin": "Qinyuan",
      "create_time": "03/15/2018 14:28:06"
    },
    {
      "id": "140481",
      "name": "潞城市",
      "parent_id": "140400",
      "short_name": "潞城",
      "level": "3",
      "city_code": "0355",
      "post_code": "047500",
      "merger_name": "中国,山西省,长治市,潞城市",
      "lng": "113.22888184",
      "lat": "36.33414078",
      "pingyin": "Lucheng",
      "create_time": "03/15/2018 14:28:06"
    },
    {
      "id": "140500",
      "name": "晋城市",
      "parent_id": "140000",
      "short_name": "晋城",
      "level": "2",
      "city_code": "0356",
      "post_code": "048000",
      "merger_name": "中国,山西省,晋城市",
      "lng": "112.85127258",
      "lat": "35.49755478",
      "pingyin": "Jincheng",
      "create_time": "03/15/2018 14:28:06"
    },
    {
      "id": "140502",
      "name": "城区",
      "parent_id": "140500",
      "short_name": "城区",
      "level": "3",
      "city_code": "0356",
      "post_code": "048000",
      "merger_name": "中国,山西省,晋城市,城区",
      "lng": "112.85318756",
      "lat": "35.50175095",
      "pingyin": "Chengqu",
      "create_time": "03/15/2018 14:28:06"
    },
    {
      "id": "140521",
      "name": "沁水县",
      "parent_id": "140500",
      "short_name": "沁水",
      "level": "3",
      "city_code": "0356",
      "post_code": "048200",
      "merger_name": "中国,山西省,晋城市,沁水县",
      "lng": "112.18710327",
      "lat": "35.69102097",
      "pingyin": "Qinshui",
      "create_time": "03/15/2018 14:28:06"
    },
    {
      "id": "140522",
      "name": "阳城县",
      "parent_id": "140500",
      "short_name": "阳城",
      "level": "3",
      "city_code": "0356",
      "post_code": "048100",
      "merger_name": "中国,山西省,晋城市,阳城县",
      "lng": "112.41484833",
      "lat": "35.4861412",
      "pingyin": "Yangcheng",
      "create_time": "03/15/2018 14:28:06"
    },
    {
      "id": "140524",
      "name": "陵川县",
      "parent_id": "140500",
      "short_name": "陵川",
      "level": "3",
      "city_code": "0356",
      "post_code": "048300",
      "merger_name": "中国,山西省,晋城市,陵川县",
      "lng": "113.2806015",
      "lat": "35.77531815",
      "pingyin": "Lingchuan",
      "create_time": "03/15/2018 14:28:06"
    },
    {
      "id": "140525",
      "name": "泽州县",
      "parent_id": "140500",
      "short_name": "泽州",
      "level": "3",
      "city_code": "0356",
      "post_code": "048012",
      "merger_name": "中国,山西省,晋城市,泽州县",
      "lng": "112.83946991",
      "lat": "35.50788879",
      "pingyin": "Zezhou",
      "create_time": "03/15/2018 14:28:06"
    },
    {
      "id": "140581",
      "name": "高平市",
      "parent_id": "140500",
      "short_name": "高平",
      "level": "3",
      "city_code": "0356",
      "post_code": "048400",
      "merger_name": "中国,山西省,晋城市,高平市",
      "lng": "112.92288208",
      "lat": "35.79705048",
      "pingyin": "Gaoping",
      "create_time": "03/15/2018 14:28:06"
    },
    {
      "id": "140600",
      "name": "朔州市",
      "parent_id": "140000",
      "short_name": "朔州",
      "level": "2",
      "city_code": "0349",
      "post_code": "038500",
      "merger_name": "中国,山西省,朔州市",
      "lng": "112.43338776",
      "lat": "39.33126068",
      "pingyin": "Shuozhou",
      "create_time": "03/15/2018 14:28:06"
    },
    {
      "id": "140602",
      "name": "朔城区",
      "parent_id": "140600",
      "short_name": "朔城",
      "level": "3",
      "city_code": "0349",
      "post_code": "036000",
      "merger_name": "中国,山西省,朔州市,朔城区",
      "lng": "112.4318924",
      "lat": "39.3198204",
      "pingyin": "Shuocheng",
      "create_time": "03/15/2018 14:28:06"
    },
    {
      "id": "140603",
      "name": "平鲁区",
      "parent_id": "140600",
      "short_name": "平鲁",
      "level": "3",
      "city_code": "0349",
      "post_code": "038600",
      "merger_name": "中国,山西省,朔州市,平鲁区",
      "lng": "112.28833008",
      "lat": "39.5115509",
      "pingyin": "Pinglu",
      "create_time": "03/15/2018 14:28:06"
    },
    {
      "id": "140621",
      "name": "山阴县",
      "parent_id": "140600",
      "short_name": "山阴",
      "level": "3",
      "city_code": "0349",
      "post_code": "036900",
      "merger_name": "中国,山西省,朔州市,山阴县",
      "lng": "112.81661987",
      "lat": "39.52696991",
      "pingyin": "Shanyin",
      "create_time": "03/15/2018 14:28:06"
    },
    {
      "id": "140622",
      "name": "应县",
      "parent_id": "140600",
      "short_name": "应县",
      "level": "3",
      "city_code": "0349",
      "post_code": "037600",
      "merger_name": "中国,山西省,朔州市,应县",
      "lng": "113.19052124",
      "lat": "39.5527916",
      "pingyin": "Yingxian",
      "create_time": "03/15/2018 14:28:06"
    },
    {
      "id": "140623",
      "name": "右玉县",
      "parent_id": "140600",
      "short_name": "右玉",
      "level": "3",
      "city_code": "0349",
      "post_code": "037200",
      "merger_name": "中国,山西省,朔州市,右玉县",
      "lng": "112.46901703",
      "lat": "39.99010849",
      "pingyin": "Youyu",
      "create_time": "03/15/2018 14:28:06"
    },
    {
      "id": "140624",
      "name": "怀仁县",
      "parent_id": "140600",
      "short_name": "怀仁",
      "level": "3",
      "city_code": "0349",
      "post_code": "038300",
      "merger_name": "中国,山西省,朔州市,怀仁县",
      "lng": "113.10009003",
      "lat": "39.82806015",
      "pingyin": "Huairen",
      "create_time": "03/15/2018 14:28:06"
    },
    {
      "id": "140700",
      "name": "晋中市",
      "parent_id": "140000",
      "short_name": "晋中",
      "level": "2",
      "city_code": "0354",
      "post_code": "030600",
      "merger_name": "中国,山西省,晋中市",
      "lng": "112.73646545",
      "lat": "37.69649506",
      "pingyin": "Jinzhong",
      "create_time": "03/15/2018 14:28:06"
    },
    {
      "id": "140702",
      "name": "榆次区",
      "parent_id": "140700",
      "short_name": "榆次",
      "level": "3",
      "city_code": "0354",
      "post_code": "030600",
      "merger_name": "中国,山西省,晋中市,榆次区",
      "lng": "112.70787811",
      "lat": "37.69779968",
      "pingyin": "Yuci",
      "create_time": "03/15/2018 14:28:06"
    },
    {
      "id": "140721",
      "name": "榆社县",
      "parent_id": "140700",
      "short_name": "榆社",
      "level": "3",
      "city_code": "0354",
      "post_code": "031800",
      "merger_name": "中国,山西省,晋中市,榆社县",
      "lng": "112.97557831",
      "lat": "37.07210159",
      "pingyin": "Yushe",
      "create_time": "03/15/2018 14:28:06"
    },
    {
      "id": "140722",
      "name": "左权县",
      "parent_id": "140700",
      "short_name": "左权",
      "level": "3",
      "city_code": "0354",
      "post_code": "032600",
      "merger_name": "中国,山西省,晋中市,左权县",
      "lng": "113.37918091",
      "lat": "37.08235168",
      "pingyin": "Zuoquan",
      "create_time": "03/15/2018 14:28:06"
    },